{
    "type": "FeatureCollection",
    "features": [
        {
            "type": "Feature",
            "geometry": {
                "type": "Point",
                "coordinates": [
                    -8.4380365,
                    40.5584765
                ]
            },
            "properties": {
                "title": "UCSP Águeda V - Pólo Borralha"
            }
        },
        {
            "type": "Feature",
            "geometry": {
                "type": "Point",
                "coordinates": [
                    -8.4487362,
                    40.5756411
                ]
            },
            "properties": {
                "title": "Centro Hospitalar de Águeda"
            }
        },
        {
            "type": "Feature",
            "geometry": {
                "type": "Point",
                "coordinates": [
                    -8.4469657,
                    40.5823497
                ]
            },
            "properties": {
                "title": "Centro de Saúde de Águeda"
            }
        },
        {
            "type": "Feature",
            "geometry": {
                "type": "Point",
                "coordinates": [
                    -8.4818358,
                    40.6861759
                ]
            },
            "properties": {
                "title": "Centro de Saúde de Albergaria-a-Velha"
            }
        },
        {
            "type": "Feature",
            "geometry": {
                "type": "Point",
                "coordinates": [
                    -8.5570601,
                    40.6798024
                ]
            },
            "properties": {
                "title": "Clínica Médica e Dentária de Angeja"
            }
        },
        {
            "type": "Feature",
            "geometry": {
                "type": "Point",
                "coordinates": [
                    -8.4417217,
                    40.4427544
                ]
            },
            "properties": {
                "title": "Hospital José Luciano de Castro"
            }
        },
        {
            "type": "Feature",
            "geometry": {
                "type": "Point",
                "coordinates": [
                    -8.4728958,
                    40.4908751
                ]
            },
            "properties": {
                "title": "Hospital da Misericórdia de Sangalhos"
            }
        },
        {
            "type": "Feature",
            "geometry": {
                "type": "Point",
                "coordinates": [
                    -8.4407012,
                    40.4351608
                ]
            },
            "properties": {
                "title": "Centro de Saúde de Anadia"
            }
        },
        {
            "type": "Feature",
            "geometry": {
                "type": "Point",
                "coordinates": [
                    -8.448118,
                    40.4132109
                ]
            },
            "properties": {
                "title": "Centro de Saúde de Aguim"
            }
        },
        {
            "type": "Feature",
            "geometry": {
                "type": "Point",
                "coordinates": [
                    -8.2548963,
                    40.930386
                ]
            },
            "properties": {
                "title": "Centro de Saúde de Arouca"
            }
        },
        {
            "type": "Feature",
            "geometry": {
                "type": "Point",
                "coordinates": [
                    -8.6727013,
                    40.5973583
                ]
            },
            "properties": {
                "title": "Hospital de Cuidados Continuados Integrados"
            }
        },
        {
            "type": "Feature",
            "geometry": {
                "type": "Point",
                "coordinates": [
                    -8.4947959,
                    40.8936117
                ]
            },
            "properties": {
                "title": "Hospital Distrital de São João da Madeira"
            }
        },
        {
            "type": "Feature",
            "geometry": {
                "type": "Point",
                "coordinates": [
                    -8.3932409,
                    40.8474462
                ]
            },
            "properties": {
                "title": "Centro de saúde de Vale de Cambra"
            }
        },
        {
            "type": "Feature",
            "geometry": {
                "type": "Point",
                "coordinates": [
                    -8.6547205,
                    40.6357527
                ]
            },
            "properties": {
                "title": "Hospital Infante Dom Pedro"
            }
        },
        {
            "type": "Feature",
            "geometry": {
                "type": "Point",
                "coordinates": [
                    -8.4407012,
                    40.4351608
                ]
            },
            "properties": {
                "title": "Centro de Saúde de Anadia"
            }
        },
        {
            "type": "Feature",
            "geometry": {
                "type": "Point",
                "coordinates": [
                    -8.6220035,
                    40.6427851
                ]
            },
            "properties": {
                "title": "Farmácia Capão Filipe"
            }
        },
        {
            "type": "Feature",
            "geometry": {
                "type": "Point",
                "coordinates": [
                    -8.6368298,
                    40.6374547
                ]
            },
            "properties": {
                "title": "Hospital da Luz Aveiro"
            }
        },
        {
            "type": "Feature",
            "geometry": {
                "type": "Point",
                "coordinates": [
                    -8.4417217,
                    40.4427544
                ]
            },
            "properties": {
                "title": "Hospital José Luciano de Castro"
            }
        },
        {
            "type": "Feature",
            "geometry": {
                "type": "Point",
                "coordinates": [
                    -8.6321659,
                    40.8579273
                ]
            },
            "properties": {
                "title": "Hospital Doutor Francisco Zagalo"
            }
        },
        {
            "type": "Feature",
            "geometry": {
                "type": "Point",
                "coordinates": [
                    -8.7516786,
                    40.6120971
                ]
            },
            "properties": {
                "title": "Unidade de Saúde Familiar Beira Ria"
            }
        },
        {
            "type": "Feature",
            "geometry": {
                "type": "Point",
                "coordinates": [
                    -8.4818358,
                    40.6861759
                ]
            },
            "properties": {
                "title": "Centro de Saúde de Albergaria-a-Velha"
            }
        },
        {
            "type": "Feature",
            "geometry": {
                "type": "Point",
                "coordinates": [
                    -8.268108,
                    41.0399307
                ]
            },
            "properties": {
                "title": "Hospital da Misericórdia"
            }
        },
        {
            "type": "Feature",
            "geometry": {
                "type": "Point",
                "coordinates": [
                    -8.4380365,
                    40.5584765
                ]
            },
            "properties": {
                "title": "UCSP Águeda V - Pólo Borralha"
            }
        },
        {
            "type": "Feature",
            "geometry": {
                "type": "Point",
                "coordinates": [
                    -8.5690923,
                    40.6282835
                ]
            },
            "properties": {
                "title": "Centro de Saúde de Eixo"
            }
        },
        {
            "type": "Feature",
            "geometry": {
                "type": "Point",
                "coordinates": [
                    -8.2673709,
                    41.0401845
                ]
            },
            "properties": {
                "title": "Centro de Saúde"
            }
        },
        {
            "type": "Feature",
            "geometry": {
                "type": "Point",
                "coordinates": [
                    -8.4716113,
                    40.8412776
                ]
            },
            "properties": {
                "title": "Hospital São Miguel"
            }
        },
        {
            "type": "Feature",
            "geometry": {
                "type": "Point",
                "coordinates": [
                    -8.6857249,
                    40.5467844
                ]
            },
            "properties": {
                "title": "Centro de Saúde de Vagos"
            }
        },
        {
            "type": "Feature",
            "geometry": {
                "type": "Point",
                "coordinates": [
                    -8.4487362,
                    40.5756411
                ]
            },
            "properties": {
                "title": "Centro Hospitalar de Águeda"
            }
        },
        {
            "type": "Feature",
            "geometry": {
                "type": "Point",
                "coordinates": [
                    -8.4946345,
                    40.8939709
                ]
            },
            "properties": {
                "title": "Hospital Distrital de São João da Madeira"
            }
        },
        {
            "type": "Feature",
            "geometry": {
                "type": "Point",
                "coordinates": [
                    -8.54839,
                    40.9311264
                ]
            },
            "properties": {
                "title": "Hospital de São Sebastião"
            }
        },
        {
            "type": "Feature",
            "geometry": {
                "type": "Point",
                "coordinates": [
                    -8.5201017,
                    40.9860526
                ]
            },
            "properties": {
                "title": "Unidade de Saúde de Fiães"
            }
        },
        {
            "type": "Feature",
            "geometry": {
                "type": "Point",
                "coordinates": [
                    -8.5690623,
                    40.7546691
                ]
            },
            "properties": {
                "title": "Centro Médico Privado de Estarreja"
            }
        },
        {
            "type": "Feature",
            "geometry": {
                "type": "Point",
                "coordinates": [
                    -8.6413723,
                    40.6398625
                ]
            },
            "properties": {
                "title": "Avelab"
            }
        },
        {
            "type": "Feature",
            "geometry": {
                "type": "Point",
                "coordinates": [
                    -8.6371172,
                    41.0024921
                ]
            },
            "properties": {
                "title": "Centro Hospitalar de Vila Nova de Gaia/Espinho"
            }
        },
        {
            "type": "Feature",
            "geometry": {
                "type": "Point",
                "coordinates": [
                    -8.7338816,
                    40.6622085
                ]
            },
            "properties": {
                "title": "Posto Médico de S. Jacinto"
            }
        },
        {
            "type": "Feature",
            "geometry": {
                "type": "Point",
                "coordinates": [
                    -8.496412,
                    40.8951804
                ]
            },
            "properties": {
                "title": "Centro de Saúde"
            }
        },
        {
            "type": "Feature",
            "geometry": {
                "type": "Point",
                "coordinates": [
                    -8.5688038,
                    40.7476825
                ]
            },
            "properties": {
                "title": "Hospital Visconde de Salreu"
            }
        },
        {
            "type": "Feature",
            "geometry": {
                "type": "Point",
                "coordinates": [
                    -8.3912558,
                    40.8491081
                ]
            },
            "properties": {
                "title": "Clínica Médica da Praça"
            }
        },
        {
            "type": "Feature",
            "geometry": {
                "type": "Point",
                "coordinates": [
                    -8.4713764,
                    40.8414337
                ]
            },
            "properties": {
                "title": "Hospital de Oliveira de Azeméis"
            }
        },
        {
            "type": "Feature",
            "geometry": {
                "type": "Point",
                "coordinates": [
                    -8.6460032,
                    40.4407798
                ]
            },
            "properties": {
                "title": "Posto Médico de Covão do Lobo"
            }
        },
        {
            "type": "Feature",
            "geometry": {
                "type": "Point",
                "coordinates": [
                    -8.6486649,
                    40.7474419
                ]
            },
            "properties": {
                "title": "Centro de Saúde de Murtosa"
            }
        },
        {
            "type": "Feature",
            "geometry": {
                "type": "Point",
                "coordinates": [
                    -8.3946725,
                    40.8506772
                ]
            },
            "properties": {
                "title": "Dentacambra"
            }
        },
        {
            "type": "Feature",
            "geometry": {
                "type": "Point",
                "coordinates": [
                    -8.6187422,
                    40.632228
                ]
            },
            "properties": {
                "title": "Centro de Saúde de Santa Joana"
            }
        },
        {
            "type": "Feature",
            "geometry": {
                "type": "Point",
                "coordinates": [
                    -8.7557756,
                    40.540563
                ]
            },
            "properties": {
                "title": "Posto de Saúde da Gafanha da Boa Hora"
            }
        },
        {
            "type": "Feature",
            "geometry": {
                "type": "Point",
                "coordinates": [
                    -8.6521093,
                    40.6436373
                ]
            },
            "properties": {
                "title": "Posto Médico"
            }
        },
        {
            "type": "Feature",
            "geometry": {
                "type": "Point",
                "coordinates": [
                    -8.4728958,
                    40.4908751
                ]
            },
            "properties": {
                "title": "Hospital da Misericórdia de Sangalhos"
            }
        },
        {
            "type": "Feature",
            "geometry": {
                "type": "Point",
                "coordinates": [
                    -8.448118,
                    40.4132109
                ]
            },
            "properties": {
                "title": "Centro de Saúde de Aguim"
            }
        },
        {
            "type": "Feature",
            "geometry": {
                "type": "Point",
                "coordinates": [
                    -8.5570601,
                    40.6798024
                ]
            },
            "properties": {
                "title": "Clínica Médica e Dentária de Angeja"
            }
        },
        {
            "type": "Feature",
            "geometry": {
                "type": "Point",
                "coordinates": [
                    -8.7120291,
                    40.6355804
                ]
            },
            "properties": {
                "title": "Centro de Saúde da Gafanha da Nazaré"
            }
        },
        {
            "type": "Feature",
            "geometry": {
                "type": "Point",
                "coordinates": [
                    -8.4649555,
                    40.8478106
                ]
            },
            "properties": {
                "title": "Centro de Saúde Oliveira de Azeméis"
            }
        },
        {
            "type": "Feature",
            "geometry": {
                "type": "Point",
                "coordinates": [
                    -8.3641931,
                    40.7268763
                ]
            },
            "properties": {
                "title": "Centro de Saúde de Sever do Vouga"
            }
        },
        {
            "type": "Feature",
            "geometry": {
                "type": "Point",
                "coordinates": [
                    -8.377049,
                    40.8548876
                ]
            },
            "properties": {
                "title": "Centro de Saúde"
            }
        },
        {
            "type": "Feature",
            "geometry": {
                "type": "Point",
                "coordinates": [
                    -8.5743475,
                    40.760451
                ]
            },
            "properties": {
                "title": "Centro de Saúde de Estarreja"
            }
        },
        {
            "type": "Feature",
            "geometry": {
                "type": "Point",
                "coordinates": [
                    -8.4934998,
                    40.517015
                ]
            },
            "properties": {
                "title": "Centro de Saúde de Oliveira do Bairro"
            }
        },
        {
            "type": "Feature",
            "geometry": {
                "type": "Point",
                "coordinates": [
                    -8.5379597,
                    40.5428801
                ]
            },
            "properties": {
                "title": "CLIRIA - CLÍNICA DE OIÃ"
            }
        },
        {
            "type": "Feature",
            "geometry": {
                "type": "Point",
                "coordinates": [
                    -8.3921183,
                    40.8480171
                ]
            },
            "properties": {
                "title": "Cuidados continuados"
            }
        },
        {
            "type": "Feature",
            "geometry": {
                "type": "Point",
                "coordinates": [
                    -8.6343379,
                    40.5230315
                ]
            },
            "properties": {
                "title": "Centro de Saúde de Ouca"
            }
        },
        {
            "type": "Feature",
            "geometry": {
                "type": "Point",
                "coordinates": [
                    -8.3926173,
                    40.8480235
                ]
            },
            "properties": {
                "title": "Hospital de Vale de CambraCentro de Saúde"
            }
        },
        {
            "type": "Feature",
            "geometry": {
                "type": "Point",
                "coordinates": [
                    -8.6465863,
                    40.5429183
                ]
            },
            "properties": {
                "title": "Centro de Saúde de Sosa"
            }
        },
        {
            "type": "Feature",
            "geometry": {
                "type": "Point",
                "coordinates": [
                    -8.4562682,
                    40.3801291
                ]
            },
            "properties": {
                "title": "Centro de Saúde da Mealhada"
            }
        },
        {
            "type": "Feature",
            "geometry": {
                "type": "Point",
                "coordinates": [
                    -8.6049641,
                    40.6010842
                ]
            },
            "properties": {
                "title": "Centro de Saúde de Oliveirinha"
            }
        },
        {
            "type": "Feature",
            "geometry": {
                "type": "Point",
                "coordinates": [
                    -8.2548963,
                    40.930386
                ]
            },
            "properties": {
                "title": "Centro de Saúde de Arouca"
            }
        },
        {
            "type": "Feature",
            "geometry": {
                "type": "Point",
                "coordinates": [
                    -8.4469657,
                    40.5823497
                ]
            },
            "properties": {
                "title": "Centro de Saúde de Águeda"
            }
        },
        {
            "type": "Feature",
            "geometry": {
                "type": "Point",
                "coordinates": [
                    -8.6362436,
                    40.6057862
                ]
            },
            "properties": {
                "title": "Centro de Saúde de Aradas"
            }
        },
        {
            "type": "Feature",
            "geometry": {
                "type": "Point",
                "coordinates": [
                    -8.2673709,
                    41.0401845
                ]
            },
            "properties": {
                "title": "Centro de Saúde"
            }
        },
        {
            "type": "Feature",
            "geometry": {
                "type": "Point",
                "coordinates": [
                    -8.268108,
                    41.0399307
                ]
            },
            "properties": {
                "title": "Hospital da Misericórdia"
            }
        },
        {
            "type": "Feature",
            "geometry": {
                "type": "Point",
                "coordinates": [
                    -8.6371172,
                    41.0024921
                ]
            },
            "properties": {
                "title": "Centro Hospitalar de Vila Nova de Gaia/Espinho"
            }
        },
        {
            "type": "Feature",
            "geometry": {
                "type": "Point",
                "coordinates": [
                    -8.5743475,
                    40.760451
                ]
            },
            "properties": {
                "title": "Centro de Saúde de Estarreja"
            }
        },
        {
            "type": "Feature",
            "geometry": {
                "type": "Point",
                "coordinates": [
                    -8.5688038,
                    40.7476825
                ]
            },
            "properties": {
                "title": "Hospital Visconde de Salreu"
            }
        },
        {
            "type": "Feature",
            "geometry": {
                "type": "Point",
                "coordinates": [
                    -8.5690623,
                    40.7546691
                ]
            },
            "properties": {
                "title": "Centro Médico Privado de Estarreja"
            }
        },
        {
            "type": "Feature",
            "geometry": {
                "type": "Point",
                "coordinates": [
                    -8.6727013,
                    40.5973583
                ]
            },
            "properties": {
                "title": "Hospital de Cuidados Continuados Integrados"
            }
        },
        {
            "type": "Feature",
            "geometry": {
                "type": "Point",
                "coordinates": [
                    -8.7120291,
                    40.6355804
                ]
            },
            "properties": {
                "title": "Centro de Saúde da Gafanha da Nazaré"
            }
        },
        {
            "type": "Feature",
            "geometry": {
                "type": "Point",
                "coordinates": [
                    -8.7516786,
                    40.6120971
                ]
            },
            "properties": {
                "title": "Unidade de Saúde Familiar Beira Ria"
            }
        },
        {
            "type": "Feature",
            "geometry": {
                "type": "Point",
                "coordinates": [
                    -8.4562682,
                    40.3801291
                ]
            },
            "properties": {
                "title": "Centro de Saúde da Mealhada"
            }
        },
        {
            "type": "Feature",
            "geometry": {
                "type": "Point",
                "coordinates": [
                    -8.6486649,
                    40.7474419
                ]
            },
            "properties": {
                "title": "Centro de Saúde de Murtosa"
            }
        },
        {
            "type": "Feature",
            "geometry": {
                "type": "Point",
                "coordinates": [
                    -8.4716113,
                    40.8412776
                ]
            },
            "properties": {
                "title": "Hospital São Miguel"
            }
        },
        {
            "type": "Feature",
            "geometry": {
                "type": "Point",
                "coordinates": [
                    -8.4649555,
                    40.8478106
                ]
            },
            "properties": {
                "title": "Centro de Saúde Oliveira de Azeméis"
            }
        },
        {
            "type": "Feature",
            "geometry": {
                "type": "Point",
                "coordinates": [
                    -8.4713764,
                    40.8414337
                ]
            },
            "properties": {
                "title": "Hospital de Oliveira de Azeméis"
            }
        },
        {
            "type": "Feature",
            "geometry": {
                "type": "Point",
                "coordinates": [
                    -8.4934998,
                    40.517015
                ]
            },
            "properties": {
                "title": "Centro de Saúde de Oliveira do Bairro"
            }
        },
        {
            "type": "Feature",
            "geometry": {
                "type": "Point",
                "coordinates": [
                    -8.5379597,
                    40.5428801
                ]
            },
            "properties": {
                "title": "CLIRIA - CLÍNICA DE OIÃ"
            }
        },
        {
            "type": "Feature",
            "geometry": {
                "type": "Point",
                "coordinates": [
                    -8.6321659,
                    40.8579273
                ]
            },
            "properties": {
                "title": "Hospital Doutor Francisco Zagalo"
            }
        },
        {
            "type": "Feature",
            "geometry": {
                "type": "Point",
                "coordinates": [
                    -8.5201017,
                    40.9860526
                ]
            },
            "properties": {
                "title": "Unidade de Saúde de Fiães"
            }
        },
        {
            "type": "Feature",
            "geometry": {
                "type": "Point",
                "coordinates": [
                    -8.54839,
                    40.9311264
                ]
            },
            "properties": {
                "title": "Hospital de São Sebastião"
            }
        },
        {
            "type": "Feature",
            "geometry": {
                "type": "Point",
                "coordinates": [
                    -8.4947959,
                    40.8936117
                ]
            },
            "properties": {
                "title": "Hospital Distrital de São João da Madeira"
            }
        },
        {
            "type": "Feature",
            "geometry": {
                "type": "Point",
                "coordinates": [
                    -8.4946345,
                    40.8939709
                ]
            },
            "properties": {
                "title": "Hospital Distrital de São João da Madeira"
            }
        },
        {
            "type": "Feature",
            "geometry": {
                "type": "Point",
                "coordinates": [
                    -8.496412,
                    40.8951804
                ]
            },
            "properties": {
                "title": "Centro de Saúde"
            }
        },
        {
            "type": "Feature",
            "geometry": {
                "type": "Point",
                "coordinates": [
                    -8.3641931,
                    40.7268763
                ]
            },
            "properties": {
                "title": "Centro de Saúde de Sever do Vouga"
            }
        },
        {
            "type": "Feature",
            "geometry": {
                "type": "Point",
                "coordinates": [
                    -8.6857249,
                    40.5467844
                ]
            },
            "properties": {
                "title": "Centro de Saúde de Vagos"
            }
        },
        {
            "type": "Feature",
            "geometry": {
                "type": "Point",
                "coordinates": [
                    -8.6343379,
                    40.5230315
                ]
            },
            "properties": {
                "title": "Centro de Saúde de Ouca"
            }
        },
        {
            "type": "Feature",
            "geometry": {
                "type": "Point",
                "coordinates": [
                    -8.7557756,
                    40.540563
                ]
            },
            "properties": {
                "title": "Posto de Saúde da Gafanha da Boa Hora"
            }
        },
        {
            "type": "Feature",
            "geometry": {
                "type": "Point",
                "coordinates": [
                    -8.6460032,
                    40.4407798
                ]
            },
            "properties": {
                "title": "Posto Médico de Covão do Lobo"
            }
        },
        {
            "type": "Feature",
            "geometry": {
                "type": "Point",
                "coordinates": [
                    -8.6465863,
                    40.5429183
                ]
            },
            "properties": {
                "title": "Centro de Saúde de Sosa"
            }
        },
        {
            "type": "Feature",
            "geometry": {
                "type": "Point",
                "coordinates": [
                    -8.3912558,
                    40.8491081
                ]
            },
            "properties": {
                "title": "Clínica Médica da Praça"
            }
        },
        {
            "type": "Feature",
            "geometry": {
                "type": "Point",
                "coordinates": [
                    -8.3946725,
                    40.8506772
                ]
            },
            "properties": {
                "title": "Dentacambra"
            }
        },
        {
            "type": "Feature",
            "geometry": {
                "type": "Point",
                "coordinates": [
                    -8.377049,
                    40.8548876
                ]
            },
            "properties": {
                "title": "Centro de Saúde"
            }
        },
        {
            "type": "Feature",
            "geometry": {
                "type": "Point",
                "coordinates": [
                    -8.3921183,
                    40.8480171
                ]
            },
            "properties": {
                "title": "Cuidados continuados"
            }
        },
        {
            "type": "Feature",
            "geometry": {
                "type": "Point",
                "coordinates": [
                    -8.3932409,
                    40.8474462
                ]
            },
            "properties": {
                "title": "Centro de saúde de Vale de Cambra"
            }
        },
        {
            "type": "Feature",
            "geometry": {
                "type": "Point",
                "coordinates": [
                    -8.3926173,
                    40.8480235
                ]
            },
            "properties": {
                "title": "Hospital de Vale de CambraCentro de Saúde"
            }
        },
        {
            "type": "Feature",
            "geometry": {
                "type": "Point",
                "coordinates": [
                    -7.5958545,
                    37.9443159
                ]
            },
            "properties": {
                "title": "Hospital de São Paulo - Serpa"
            }
        },
        {
            "type": "Feature",
            "geometry": {
                "type": "Point",
                "coordinates": [
                    -7.8713918,
                    38.0142979
                ]
            },
            "properties": {
                "title": "Hospital José Joaquim Fernandes"
            }
        },
        {
            "type": "Feature",
            "geometry": {
                "type": "Point",
                "coordinates": [
                    -7.5958545,
                    37.9443159
                ]
            },
            "properties": {
                "title": "Hospital de São Paulo - Serpa"
            }
        },
        {
            "type": "Feature",
            "geometry": {
                "type": "Point",
                "coordinates": [
                    -8.3508792,
                    41.6304605
                ]
            },
            "properties": {
                "title": "Casa da Saúde Amares"
            }
        },
        {
            "type": "Feature",
            "geometry": {
                "type": "Point",
                "coordinates": [
                    -8.3488748,
                    41.6301168
                ]
            },
            "properties": {
                "title": "Cruz Vermelha de Amares"
            }
        },
        {
            "type": "Feature",
            "geometry": {
                "type": "Point",
                "coordinates": [
                    -8.358863,
                    41.6303396
                ]
            },
            "properties": {
                "title": "Centro de Saúde de Amares"
            }
        },
        {
            "type": "Feature",
            "geometry": {
                "type": "Point",
                "coordinates": [
                    -8.6164029,
                    41.5330744
                ]
            },
            "properties": {
                "title": "Hospital de Santa Maria Maior"
            }
        },
        {
            "type": "Feature",
            "geometry": {
                "type": "Point",
                "coordinates": [
                    -8.6141308,
                    41.5357195
                ]
            },
            "properties": {
                "title": "Unidade de Saúde Familiar de Santo António"
            }
        },
        {
            "type": "Feature",
            "geometry": {
                "type": "Point",
                "coordinates": [
                    -8.6178809,
                    41.5214628
                ]
            },
            "properties": {
                "title": "Centro de Saúde de Barcelinhos"
            }
        },
        {
            "type": "Feature",
            "geometry": {
                "type": "Point",
                "coordinates": [
                    -8.7177482,
                    41.6156419
                ]
            },
            "properties": {
                "title": "Clínica Saúde e Vida"
            }
        },
        {
            "type": "Feature",
            "geometry": {
                "type": "Point",
                "coordinates": [
                    -8.6211019,
                    41.5410266
                ]
            },
            "properties": {
                "title": "Casa de saúde S. João de Deus"
            }
        },
        {
            "type": "Feature",
            "geometry": {
                "type": "Point",
                "coordinates": [
                    -8.6345309,
                    41.519811
                ]
            },
            "properties": {
                "title": "Hospital Particular Barcelos"
            }
        },
        {
            "type": "Feature",
            "geometry": {
                "type": "Point",
                "coordinates": [
                    -8.1695736,
                    41.4500031
                ]
            },
            "properties": {
                "title": "Hospital de Fafe"
            }
        },
        {
            "type": "Feature",
            "geometry": {
                "type": "Point",
                "coordinates": [
                    -8.5170035,
                    41.3998052
                ]
            },
            "properties": {
                "title": "Hospital de Dia da Trofa"
            }
        },
        {
            "type": "Feature",
            "geometry": {
                "type": "Point",
                "coordinates": [
                    -8.4141191,
                    41.5248064
                ]
            },
            "properties": {
                "title": "Hospital Privado Braga"
            }
        },
        {
            "type": "Feature",
            "geometry": {
                "type": "Point",
                "coordinates": [
                    -8.0921277,
                    41.6820726
                ]
            },
            "properties": {
                "title": "Cruz Vermelha de Salamonde"
            }
        },
        {
            "type": "Feature",
            "geometry": {
                "type": "Point",
                "coordinates": [
                    -8.5237956,
                    41.4131579
                ]
            },
            "properties": {
                "title": "Hospital São João de Deus"
            }
        },
        {
            "type": "Feature",
            "geometry": {
                "type": "Point",
                "coordinates": [
                    -8.3869981,
                    41.568531
                ]
            },
            "properties": {
                "title": "USF de Gualtar"
            }
        },
        {
            "type": "Feature",
            "geometry": {
                "type": "Point",
                "coordinates": [
                    -8.1053477,
                    41.5671945
                ]
            },
            "properties": {
                "title": "Centro de Saúde"
            }
        },
        {
            "type": "Feature",
            "geometry": {
                "type": "Point",
                "coordinates": [
                    -8.7813168,
                    41.5366613
                ]
            },
            "properties": {
                "title": "Hospital Valentim Ribeiro"
            }
        },
        {
            "type": "Feature",
            "geometry": {
                "type": "Point",
                "coordinates": [
                    -8.429615,
                    41.5485469
                ]
            },
            "properties": {
                "title": "Centro de Diagnóstico Pneumológico de Braga"
            }
        },
        {
            "type": "Feature",
            "geometry": {
                "type": "Point",
                "coordinates": [
                    -8.6345309,
                    41.519811
                ]
            },
            "properties": {
                "title": "Hospital Particular Barcelos"
            }
        },
        {
            "type": "Feature",
            "geometry": {
                "type": "Point",
                "coordinates": [
                    -8.3112948,
                    41.7182673
                ]
            },
            "properties": {
                "title": "Cruz Vermelha"
            }
        },
        {
            "type": "Feature",
            "geometry": {
                "type": "Point",
                "coordinates": [
                    -8.4185915,
                    41.5498525
                ]
            },
            "properties": {
                "title": "Hospital Privado de Braga (Centro)"
            }
        },
        {
            "type": "Feature",
            "geometry": {
                "type": "Point",
                "coordinates": [
                    -8.315006,
                    41.3761686
                ]
            },
            "properties": {
                "title": "Cuidados Continuados"
            }
        },
        {
            "type": "Feature",
            "geometry": {
                "type": "Point",
                "coordinates": [
                    -8.3796175,
                    41.4423365
                ]
            },
            "properties": {
                "title": "Centro de Saúde"
            }
        },
        {
            "type": "Feature",
            "geometry": {
                "type": "Point",
                "coordinates": [
                    -8.3508792,
                    41.6304605
                ]
            },
            "properties": {
                "title": "Casa da Saúde Amares"
            }
        },
        {
            "type": "Feature",
            "geometry": {
                "type": "Point",
                "coordinates": [
                    -8.7177482,
                    41.6156419
                ]
            },
            "properties": {
                "title": "Clínica Saúde e Vida"
            }
        },
        {
            "type": "Feature",
            "geometry": {
                "type": "Point",
                "coordinates": [
                    -8.5603793,
                    41.3580956
                ]
            },
            "properties": {
                "title": "Centro Saúde Ribeirão"
            }
        },
        {
            "type": "Feature",
            "geometry": {
                "type": "Point",
                "coordinates": [
                    -8.6211019,
                    41.5410266
                ]
            },
            "properties": {
                "title": "Casa de saúde S. João de Deus"
            }
        },
        {
            "type": "Feature",
            "geometry": {
                "type": "Point",
                "coordinates": [
                    -8.4204518,
                    41.5619316
                ]
            },
            "properties": {
                "title": "Clínica médica dentária"
            }
        },
        {
            "type": "Feature",
            "geometry": {
                "type": "Point",
                "coordinates": [
                    -8.4069884,
                    41.559711
                ]
            },
            "properties": {
                "title": "Clínica Dentária Braga Parque"
            }
        },
        {
            "type": "Feature",
            "geometry": {
                "type": "Point",
                "coordinates": [
                    -8.4018721,
                    41.5859827
                ]
            },
            "properties": {
                "title": "Unidade de Cuidados de Saúde Personalizados de Adaúfe"
            }
        },
        {
            "type": "Feature",
            "geometry": {
                "type": "Point",
                "coordinates": [
                    -8.4067458,
                    41.5603159
                ]
            },
            "properties": {
                "title": "Clínica Dentária Braga Parque"
            }
        },
        {
            "type": "Feature",
            "geometry": {
                "type": "Point",
                "coordinates": [
                    -8.1662765,
                    41.7215613
                ]
            },
            "properties": {
                "title": "Cruz Vermelha Portuguesa - Delegação do Gerês"
            }
        },
        {
            "type": "Feature",
            "geometry": {
                "type": "Point",
                "coordinates": [
                    -8.3157245,
                    41.3821914
                ]
            },
            "properties": {
                "title": "Clínica VizelMédica"
            }
        },
        {
            "type": "Feature",
            "geometry": {
                "type": "Point",
                "coordinates": [
                    -8.4204352,
                    41.5575556
                ]
            },
            "properties": {
                "title": "Clínica Dentária"
            }
        },
        {
            "type": "Feature",
            "geometry": {
                "type": "Point",
                "coordinates": [
                    -8.4155696,
                    41.3835384
                ]
            },
            "properties": {
                "title": "Posto de Saúde"
            }
        },
        {
            "type": "Feature",
            "geometry": {
                "type": "Point",
                "coordinates": [
                    -8.358863,
                    41.6303396
                ]
            },
            "properties": {
                "title": "Centro de Saúde de Amares"
            }
        },
        {
            "type": "Feature",
            "geometry": {
                "type": "Point",
                "coordinates": [
                    -8.7729232,
                    41.5117352
                ]
            },
            "properties": {
                "title": "Santa Casa da Misericórdia de Fão"
            }
        },
        {
            "type": "Feature",
            "geometry": {
                "type": "Point",
                "coordinates": [
                    -8.6164029,
                    41.5330744
                ]
            },
            "properties": {
                "title": "Hospital de Santa Maria Maior"
            }
        },
        {
            "type": "Feature",
            "geometry": {
                "type": "Point",
                "coordinates": [
                    -8.4271341,
                    41.3710203
                ]
            },
            "properties": {
                "title": "Clinica Dentária 2m"
            }
        },
        {
            "type": "Feature",
            "geometry": {
                "type": "Point",
                "coordinates": [
                    -8.4597584,
                    41.6004453
                ]
            },
            "properties": {
                "title": "Centro de Saúde"
            }
        },
        {
            "type": "Feature",
            "geometry": {
                "type": "Point",
                "coordinates": [
                    -8.092774,
                    41.3709391
                ]
            },
            "properties": {
                "title": "Clínica de Medicina Dentária Doutora Sílvia Silva"
            }
        },
        {
            "type": "Feature",
            "geometry": {
                "type": "Point",
                "coordinates": [
                    -8.426948,
                    41.3701904
                ]
            },
            "properties": {
                "title": "Pedologia B-Saúde"
            }
        },
        {
            "type": "Feature",
            "geometry": {
                "type": "Point",
                "coordinates": [
                    -8.4910028,
                    41.5317809
                ]
            },
            "properties": {
                "title": "Extensão UCSP Cabreiros/Sequeira - Pólo Cabreiros (CS Braga II - Maximinos)"
            }
        },
        {
            "type": "Feature",
            "geometry": {
                "type": "Point",
                "coordinates": [
                    -8.2659417,
                    41.5736346
                ]
            },
            "properties": {
                "title": "Hospital António Lopes"
            }
        },
        {
            "type": "Feature",
            "geometry": {
                "type": "Point",
                "coordinates": [
                    -8.306052,
                    41.4407234
                ]
            },
            "properties": {
                "title": "Hospital da Senhora da Oliveira Guimarães, EPE"
            }
        },
        {
            "type": "Feature",
            "geometry": {
                "type": "Point",
                "coordinates": [
                    -8.2940403,
                    41.4269987
                ]
            },
            "properties": {
                "title": "Centro de Saúde de Urgezes"
            }
        },
        {
            "type": "Feature",
            "geometry": {
                "type": "Point",
                "coordinates": [
                    -8.0007891,
                    41.3845813
                ]
            },
            "properties": {
                "title": "Centro de Saúde de Celorico de Basto"
            }
        },
        {
            "type": "Feature",
            "geometry": {
                "type": "Point",
                "coordinates": [
                    -8.3905284,
                    41.3908807
                ]
            },
            "properties": {
                "title": "Hospital Narciso Ferreira"
            }
        },
        {
            "type": "Feature",
            "geometry": {
                "type": "Point",
                "coordinates": [
                    -8.3121983,
                    41.3757583
                ]
            },
            "properties": {
                "title": "Centro de Saúde de Vizela"
            }
        },
        {
            "type": "Feature",
            "geometry": {
                "type": "Point",
                "coordinates": [
                    -8.6178809,
                    41.5214628
                ]
            },
            "properties": {
                "title": "Centro de Saúde de Barcelinhos"
            }
        },
        {
            "type": "Feature",
            "geometry": {
                "type": "Point",
                "coordinates": [
                    -8.4152241,
                    41.5484885
                ]
            },
            "properties": {
                "title": "Cruz Vermelha Portuguesa"
            }
        },
        {
            "type": "Feature",
            "geometry": {
                "type": "Point",
                "coordinates": [
                    -8.4191246,
                    41.5501426
                ]
            },
            "properties": {
                "title": "Hospital Privado de Braga (Centro)"
            }
        },
        {
            "type": "Feature",
            "geometry": {
                "type": "Point",
                "coordinates": [
                    -8.4115796,
                    41.5488065
                ]
            },
            "properties": {
                "title": "Clínica Santa Tecla"
            }
        },
        {
            "type": "Feature",
            "geometry": {
                "type": "Point",
                "coordinates": [
                    -8.3144794,
                    41.3792618
                ]
            },
            "properties": {
                "title": "Centro de Saúde de Vizela"
            }
        },
        {
            "type": "Feature",
            "geometry": {
                "type": "Point",
                "coordinates": [
                    -8.401134,
                    41.5668621
                ]
            },
            "properties": {
                "title": "Hospital de Braga"
            }
        },
        {
            "type": "Feature",
            "geometry": {
                "type": "Point",
                "coordinates": [
                    -8.6141308,
                    41.5357195
                ]
            },
            "properties": {
                "title": "Unidade de Saúde Familiar de Santo António"
            }
        },
        {
            "type": "Feature",
            "geometry": {
                "type": "Point",
                "coordinates": [
                    -8.3220063,
                    41.4296471
                ]
            },
            "properties": {
                "title": "Hospital Privado de Guimarães"
            }
        },
        {
            "type": "Feature",
            "geometry": {
                "type": "Point",
                "coordinates": [
                    -8.4105654,
                    41.5422435
                ]
            },
            "properties": {
                "title": "Unidade de Saúde Familiar Bracara Augusta"
            }
        },
        {
            "type": "Feature",
            "geometry": {
                "type": "Point",
                "coordinates": [
                    -8.4146584,
                    41.5467352
                ]
            },
            "properties": {
                "title": "Unidade de Saúde do Carandá"
            }
        },
        {
            "type": "Feature",
            "geometry": {
                "type": "Point",
                "coordinates": [
                    -8.4355661,
                    41.5702042
                ]
            },
            "properties": {
                "title": "Clínica Dentária"
            }
        },
        {
            "type": "Feature",
            "geometry": {
                "type": "Point",
                "coordinates": [
                    -8.3488748,
                    41.6301168
                ]
            },
            "properties": {
                "title": "Cruz Vermelha de Amares"
            }
        },
        {
            "type": "Feature",
            "geometry": {
                "type": "Point",
                "coordinates": [
                    -8.7830557,
                    41.5569857
                ]
            },
            "properties": {
                "title": "Cruz Vermelha Portuguesa - Delegação Marinhas"
            }
        },
        {
            "type": "Feature",
            "geometry": {
                "type": "Point",
                "coordinates": [
                    -8.4351106,
                    41.6526004
                ]
            },
            "properties": {
                "title": "Santa Casa da Misericórdia"
            }
        },
        {
            "type": "Feature",
            "geometry": {
                "type": "Point",
                "coordinates": [
                    -8.3995399,
                    41.5675427
                ]
            },
            "properties": {
                "title": "Entrada Principal Ágora"
            }
        },
        {
            "type": "Feature",
            "geometry": {
                "type": "Point",
                "coordinates": [
                    -8.1396253,
                    41.6353499
                ]
            },
            "properties": {
                "title": "Centro de Saúde"
            }
        },
        {
            "type": "Feature",
            "geometry": {
                "type": "Point",
                "coordinates": [
                    -8.3027821,
                    41.4472663
                ]
            },
            "properties": {
                "title": "Centro de Saúde da Amorosa"
            }
        },
        {
            "type": "Feature",
            "geometry": {
                "type": "Point",
                "coordinates": [
                    -8.092774,
                    41.3709391
                ]
            },
            "properties": {
                "title": "Clínica de Medicina Dentária Doutora Sílvia Silva"
            }
        },
        {
            "type": "Feature",
            "geometry": {
                "type": "Point",
                "coordinates": [
                    -8.0007891,
                    41.3845813
                ]
            },
            "properties": {
                "title": "Centro de Saúde de Celorico de Basto"
            }
        },
        {
            "type": "Feature",
            "geometry": {
                "type": "Point",
                "coordinates": [
                    -8.7729232,
                    41.5117352
                ]
            },
            "properties": {
                "title": "Santa Casa da Misericórdia de Fão"
            }
        },
        {
            "type": "Feature",
            "geometry": {
                "type": "Point",
                "coordinates": [
                    -8.7813168,
                    41.5366613
                ]
            },
            "properties": {
                "title": "Hospital Valentim Ribeiro"
            }
        },
        {
            "type": "Feature",
            "geometry": {
                "type": "Point",
                "coordinates": [
                    -8.7830557,
                    41.5569857
                ]
            },
            "properties": {
                "title": "Cruz Vermelha Portuguesa - Delegação Marinhas"
            }
        },
        {
            "type": "Feature",
            "geometry": {
                "type": "Point",
                "coordinates": [
                    -8.1695736,
                    41.4500031
                ]
            },
            "properties": {
                "title": "Hospital de Fafe"
            }
        },
        {
            "type": "Feature",
            "geometry": {
                "type": "Point",
                "coordinates": [
                    -8.3027821,
                    41.4472663
                ]
            },
            "properties": {
                "title": "Centro de Saúde da Amorosa"
            }
        },
        {
            "type": "Feature",
            "geometry": {
                "type": "Point",
                "coordinates": [
                    -8.3220063,
                    41.4296471
                ]
            },
            "properties": {
                "title": "Hospital Privado de Guimarães"
            }
        },
        {
            "type": "Feature",
            "geometry": {
                "type": "Point",
                "coordinates": [
                    -8.3796175,
                    41.4423365
                ]
            },
            "properties": {
                "title": "Centro de Saúde"
            }
        },
        {
            "type": "Feature",
            "geometry": {
                "type": "Point",
                "coordinates": [
                    -8.2940403,
                    41.4269987
                ]
            },
            "properties": {
                "title": "Centro de Saúde de Urgezes"
            }
        },
        {
            "type": "Feature",
            "geometry": {
                "type": "Point",
                "coordinates": [
                    -8.306052,
                    41.4407234
                ]
            },
            "properties": {
                "title": "Hospital da Senhora da Oliveira Guimarães, EPE"
            }
        },
        {
            "type": "Feature",
            "geometry": {
                "type": "Point",
                "coordinates": [
                    -8.2659417,
                    41.5736346
                ]
            },
            "properties": {
                "title": "Hospital António Lopes"
            }
        },
        {
            "type": "Feature",
            "geometry": {
                "type": "Point",
                "coordinates": [
                    -8.3112948,
                    41.7182673
                ]
            },
            "properties": {
                "title": "Cruz Vermelha"
            }
        },
        {
            "type": "Feature",
            "geometry": {
                "type": "Point",
                "coordinates": [
                    -8.1662765,
                    41.7215613
                ]
            },
            "properties": {
                "title": "Cruz Vermelha Portuguesa - Delegação do Gerês"
            }
        },
        {
            "type": "Feature",
            "geometry": {
                "type": "Point",
                "coordinates": [
                    -8.1396253,
                    41.6353499
                ]
            },
            "properties": {
                "title": "Centro de Saúde"
            }
        },
        {
            "type": "Feature",
            "geometry": {
                "type": "Point",
                "coordinates": [
                    -8.1053477,
                    41.5671945
                ]
            },
            "properties": {
                "title": "Centro de Saúde"
            }
        },
        {
            "type": "Feature",
            "geometry": {
                "type": "Point",
                "coordinates": [
                    -8.0921277,
                    41.6820726
                ]
            },
            "properties": {
                "title": "Cruz Vermelha de Salamonde"
            }
        },
        {
            "type": "Feature",
            "geometry": {
                "type": "Point",
                "coordinates": [
                    -8.3905284,
                    41.3908807
                ]
            },
            "properties": {
                "title": "Hospital Narciso Ferreira"
            }
        },
        {
            "type": "Feature",
            "geometry": {
                "type": "Point",
                "coordinates": [
                    -8.4271341,
                    41.3710203
                ]
            },
            "properties": {
                "title": "Clinica Dentária 2m"
            }
        },
        {
            "type": "Feature",
            "geometry": {
                "type": "Point",
                "coordinates": [
                    -8.4155696,
                    41.3835384
                ]
            },
            "properties": {
                "title": "Posto de Saúde"
            }
        },
        {
            "type": "Feature",
            "geometry": {
                "type": "Point",
                "coordinates": [
                    -8.5237956,
                    41.4131579
                ]
            },
            "properties": {
                "title": "Hospital São João de Deus"
            }
        },
        {
            "type": "Feature",
            "geometry": {
                "type": "Point",
                "coordinates": [
                    -8.5170035,
                    41.3998052
                ]
            },
            "properties": {
                "title": "Hospital de Dia da Trofa"
            }
        },
        {
            "type": "Feature",
            "geometry": {
                "type": "Point",
                "coordinates": [
                    -8.426948,
                    41.3701904
                ]
            },
            "properties": {
                "title": "Pedologia B-Saúde"
            }
        },
        {
            "type": "Feature",
            "geometry": {
                "type": "Point",
                "coordinates": [
                    -8.5603793,
                    41.3580956
                ]
            },
            "properties": {
                "title": "Centro Saúde Ribeirão"
            }
        },
        {
            "type": "Feature",
            "geometry": {
                "type": "Point",
                "coordinates": [
                    -8.4351106,
                    41.6526004
                ]
            },
            "properties": {
                "title": "Santa Casa da Misericórdia"
            }
        },
        {
            "type": "Feature",
            "geometry": {
                "type": "Point",
                "coordinates": [
                    -8.4597584,
                    41.6004453
                ]
            },
            "properties": {
                "title": "Centro de Saúde"
            }
        },
        {
            "type": "Feature",
            "geometry": {
                "type": "Point",
                "coordinates": [
                    -8.3121983,
                    41.3757583
                ]
            },
            "properties": {
                "title": "Centro de Saúde de Vizela"
            }
        },
        {
            "type": "Feature",
            "geometry": {
                "type": "Point",
                "coordinates": [
                    -8.3157245,
                    41.3821914
                ]
            },
            "properties": {
                "title": "Clínica VizelMédica"
            }
        },
        {
            "type": "Feature",
            "geometry": {
                "type": "Point",
                "coordinates": [
                    -8.3144794,
                    41.3792618
                ]
            },
            "properties": {
                "title": "Centro de Saúde de Vizela"
            }
        },
        {
            "type": "Feature",
            "geometry": {
                "type": "Point",
                "coordinates": [
                    -8.315006,
                    41.3761686
                ]
            },
            "properties": {
                "title": "Cuidados Continuados"
            }
        },
        {
            "type": "Feature",
            "geometry": {
                "type": "Point",
                "coordinates": [
                    -6.7504943,
                    41.8179853
                ]
            },
            "properties": {
                "title": "Hospital Psiquiátrico"
            }
        },
        {
            "type": "Feature",
            "geometry": {
                "type": "Point",
                "coordinates": [
                    -6.2772463,
                    41.4956414
                ]
            },
            "properties": {
                "title": "Centro de Saúde"
            }
        },
        {
            "type": "Feature",
            "geometry": {
                "type": "Point",
                "coordinates": [
                    -7.1898437,
                    41.4849037
                ]
            },
            "properties": {
                "title": "Hospital de Mirandela"
            }
        },
        {
            "type": "Feature",
            "geometry": {
                "type": "Point",
                "coordinates": [
                    -7.1793714,
                    41.4811416
                ]
            },
            "properties": {
                "title": "Terra Quente"
            }
        },
        {
            "type": "Feature",
            "geometry": {
                "type": "Point",
                "coordinates": [
                    -6.4238808,
                    41.3910929
                ]
            },
            "properties": {
                "title": "Centro de Saúde de Sendim"
            }
        },
        {
            "type": "Feature",
            "geometry": {
                "type": "Point",
                "coordinates": [
                    -7.3071449,
                    41.2469062
                ]
            },
            "properties": {
                "title": "Centro Saude"
            }
        },
        {
            "type": "Feature",
            "geometry": {
                "type": "Point",
                "coordinates": [
                    -6.7141339,
                    41.3397964
                ]
            },
            "properties": {
                "title": "Unidade Cuidados Continuados"
            }
        },
        {
            "type": "Feature",
            "geometry": {
                "type": "Point",
                "coordinates": [
                    -6.7687339,
                    41.8041437
                ]
            },
            "properties": {
                "title": "Unidade Local de Saúde do Nordeste EPE"
            }
        },
        {
            "type": "Feature",
            "geometry": {
                "type": "Point",
                "coordinates": [
                    -6.7123469,
                    41.3432598
                ]
            },
            "properties": {
                "title": "Urgências"
            }
        },
        {
            "type": "Feature",
            "geometry": {
                "type": "Point",
                "coordinates": [
                    -7.158134,
                    41.3093553
                ]
            },
            "properties": {
                "title": "Hospital da Santa Casa de Misericórdia"
            }
        },
        {
            "type": "Feature",
            "geometry": {
                "type": "Point",
                "coordinates": [
                    -6.7138005,
                    41.3415443
                ]
            },
            "properties": {
                "title": "Cruz Vermelha"
            }
        },
        {
            "type": "Feature",
            "geometry": {
                "type": "Point",
                "coordinates": [
                    -7.1575504,
                    41.3095109
                ]
            },
            "properties": {
                "title": "Centro de Saúde"
            }
        },
        {
            "type": "Feature",
            "geometry": {
                "type": "Point",
                "coordinates": [
                    -7.3071449,
                    41.2469062
                ]
            },
            "properties": {
                "title": "Centro Saude"
            }
        },
        {
            "type": "Feature",
            "geometry": {
                "type": "Point",
                "coordinates": [
                    -6.4238808,
                    41.3910929
                ]
            },
            "properties": {
                "title": "Centro de Saúde de Sendim"
            }
        },
        {
            "type": "Feature",
            "geometry": {
                "type": "Point",
                "coordinates": [
                    -6.2772463,
                    41.4956414
                ]
            },
            "properties": {
                "title": "Centro de Saúde"
            }
        },
        {
            "type": "Feature",
            "geometry": {
                "type": "Point",
                "coordinates": [
                    -7.1793714,
                    41.4811416
                ]
            },
            "properties": {
                "title": "Terra Quente"
            }
        },
        {
            "type": "Feature",
            "geometry": {
                "type": "Point",
                "coordinates": [
                    -7.1898437,
                    41.4849037
                ]
            },
            "properties": {
                "title": "Hospital de Mirandela"
            }
        },
        {
            "type": "Feature",
            "geometry": {
                "type": "Point",
                "coordinates": [
                    -6.7141339,
                    41.3397964
                ]
            },
            "properties": {
                "title": "Unidade Cuidados Continuados"
            }
        },
        {
            "type": "Feature",
            "geometry": {
                "type": "Point",
                "coordinates": [
                    -6.7123469,
                    41.3432598
                ]
            },
            "properties": {
                "title": "Urgências"
            }
        },
        {
            "type": "Feature",
            "geometry": {
                "type": "Point",
                "coordinates": [
                    -6.7138005,
                    41.3415443
                ]
            },
            "properties": {
                "title": "Cruz Vermelha"
            }
        },
        {
            "type": "Feature",
            "geometry": {
                "type": "Point",
                "coordinates": [
                    -7.158134,
                    41.3093553
                ]
            },
            "properties": {
                "title": "Hospital da Santa Casa de Misericórdia"
            }
        },
        {
            "type": "Feature",
            "geometry": {
                "type": "Point",
                "coordinates": [
                    -7.1575504,
                    41.3095109
                ]
            },
            "properties": {
                "title": "Centro de Saúde"
            }
        },
        {
            "type": "Feature",
            "geometry": {
                "type": "Point",
                "coordinates": [
                    -7.5066228,
                    39.8250205
                ]
            },
            "properties": {
                "title": "Clinica das Violetas"
            }
        },
        {
            "type": "Feature",
            "geometry": {
                "type": "Point",
                "coordinates": [
                    -7.4986418,
                    39.8234183
                ]
            },
            "properties": {
                "title": "Hospital Amato Lusitano"
            }
        },
        {
            "type": "Feature",
            "geometry": {
                "type": "Point",
                "coordinates": [
                    -7.1714349,
                    40.1663404
                ]
            },
            "properties": {
                "title": "Centro de Saúde de Penamacor"
            }
        },
        {
            "type": "Feature",
            "geometry": {
                "type": "Point",
                "coordinates": [
                    -7.2407601,
                    39.9247577
                ]
            },
            "properties": {
                "title": "Hospital Doutor Aprigio Meireles"
            }
        },
        {
            "type": "Feature",
            "geometry": {
                "type": "Point",
                "coordinates": [
                    -7.493502,
                    40.2657612
                ]
            },
            "properties": {
                "title": "Centro Hospitalar Universitário da Cova da Beira, EPE"
            }
        },
        {
            "type": "Feature",
            "geometry": {
                "type": "Point",
                "coordinates": [
                    -7.493944,
                    40.2668395
                ]
            },
            "properties": {
                "title": "Departamento Psiquiátrico (Saúde Mental)"
            }
        },
        {
            "type": "Feature",
            "geometry": {
                "type": "Point",
                "coordinates": [
                    -7.6390091,
                    40.1983812
                ]
            },
            "properties": {
                "title": "Centro de Saúde"
            }
        },
        {
            "type": "Feature",
            "geometry": {
                "type": "Point",
                "coordinates": [
                    -7.9140737,
                    39.9214152
                ]
            },
            "properties": {
                "title": "Hospital de Oleiros"
            }
        },
        {
            "type": "Feature",
            "geometry": {
                "type": "Point",
                "coordinates": [
                    -7.4999198,
                    39.8222841
                ]
            },
            "properties": {
                "title": "Hospital Amato Lusitano"
            }
        },
        {
            "type": "Feature",
            "geometry": {
                "type": "Point",
                "coordinates": [
                    -7.5068035,
                    40.2810103
                ]
            },
            "properties": {
                "title": "Santa Casa da Misericórdia de Covilhã - Centro de Diagnóstico"
            }
        },
        {
            "type": "Feature",
            "geometry": {
                "type": "Point",
                "coordinates": [
                    -7.493502,
                    40.2657612
                ]
            },
            "properties": {
                "title": "Centro Hospitalar Universitário da Cova da Beira, EPE"
            }
        },
        {
            "type": "Feature",
            "geometry": {
                "type": "Point",
                "coordinates": [
                    -7.5068035,
                    40.2810103
                ]
            },
            "properties": {
                "title": "Santa Casa da Misericórdia de Covilhã - Centro de Diagnóstico"
            }
        },
        {
            "type": "Feature",
            "geometry": {
                "type": "Point",
                "coordinates": [
                    -7.493944,
                    40.2668395
                ]
            },
            "properties": {
                "title": "Departamento Psiquiátrico (Saúde Mental)"
            }
        },
        {
            "type": "Feature",
            "geometry": {
                "type": "Point",
                "coordinates": [
                    -7.6390091,
                    40.1983812
                ]
            },
            "properties": {
                "title": "Centro de Saúde"
            }
        },
        {
            "type": "Feature",
            "geometry": {
                "type": "Point",
                "coordinates": [
                    -7.2407601,
                    39.9247577
                ]
            },
            "properties": {
                "title": "Hospital Doutor Aprigio Meireles"
            }
        },
        {
            "type": "Feature",
            "geometry": {
                "type": "Point",
                "coordinates": [
                    -7.9140737,
                    39.9214152
                ]
            },
            "properties": {
                "title": "Hospital de Oleiros"
            }
        },
        {
            "type": "Feature",
            "geometry": {
                "type": "Point",
                "coordinates": [
                    -7.1714349,
                    40.1663404
                ]
            },
            "properties": {
                "title": "Centro de Saúde de Penamacor"
            }
        },
        {
            "type": "Feature",
            "geometry": {
                "type": "Point",
                "coordinates": [
                    -8.6298927,
                    40.4012183
                ]
            },
            "properties": {
                "title": "Centro de Saúde de Febres"
            }
        },
        {
            "type": "Feature",
            "geometry": {
                "type": "Point",
                "coordinates": [
                    -8.7626573,
                    40.297905
                ]
            },
            "properties": {
                "title": "Hospital Rovisco Pais"
            }
        },
        {
            "type": "Feature",
            "geometry": {
                "type": "Point",
                "coordinates": [
                    -8.5876475,
                    40.3414743
                ]
            },
            "properties": {
                "title": "Centro de Saúde de Cantanhede"
            }
        },
        {
            "type": "Feature",
            "geometry": {
                "type": "Point",
                "coordinates": [
                    -8.6619573,
                    40.4186171
                ]
            },
            "properties": {
                "title": "Posto de Saúde de Vilamar"
            }
        },
        {
            "type": "Feature",
            "geometry": {
                "type": "Point",
                "coordinates": [
                    -8.5876475,
                    40.3414743
                ]
            },
            "properties": {
                "title": "Hospital do Arcebisto João Crisóstomo"
            }
        },
        {
            "type": "Feature",
            "geometry": {
                "type": "Point",
                "coordinates": [
                    -8.3929031,
                    40.0276228
                ]
            },
            "properties": {
                "title": "Centro Saúde Penela"
            }
        },
        {
            "type": "Feature",
            "geometry": {
                "type": "Point",
                "coordinates": [
                    -8.2837721,
                    40.2671828
                ]
            },
            "properties": {
                "title": "Centro de Saúde de Penacova"
            }
        },
        {
            "type": "Feature",
            "geometry": {
                "type": "Point",
                "coordinates": [
                    -8.6342525,
                    40.1611738
                ]
            },
            "properties": {
                "title": "Centro de Saúde da Granja do Ulmeiro"
            }
        },
        {
            "type": "Feature",
            "geometry": {
                "type": "Point",
                "coordinates": [
                    -8.5876475,
                    40.3414743
                ]
            },
            "properties": {
                "title": "Hospital do Arcebisto João Crisóstomo"
            }
        },
        {
            "type": "Feature",
            "geometry": {
                "type": "Point",
                "coordinates": [
                    -8.8541564,
                    40.1558441
                ]
            },
            "properties": {
                "title": "Centro de Saúde da Figueira da Foz"
            }
        },
        {
            "type": "Feature",
            "geometry": {
                "type": "Point",
                "coordinates": [
                    -8.6619573,
                    40.4186171
                ]
            },
            "properties": {
                "title": "Posto de Saúde de Vilamar"
            }
        },
        {
            "type": "Feature",
            "geometry": {
                "type": "Point",
                "coordinates": [
                    -8.7626573,
                    40.297905
                ]
            },
            "properties": {
                "title": "Hospital Rovisco Pais"
            }
        },
        {
            "type": "Feature",
            "geometry": {
                "type": "Point",
                "coordinates": [
                    -8.4101273,
                    40.2166804
                ]
            },
            "properties": {
                "title": "Instituto Português de Oncologia - Francisco Gentil"
            }
        },
        {
            "type": "Feature",
            "geometry": {
                "type": "Point",
                "coordinates": [
                    -8.7373668,
                    40.4270273
                ]
            },
            "properties": {
                "title": "Atendimento Permanente"
            }
        },
        {
            "type": "Feature",
            "geometry": {
                "type": "Point",
                "coordinates": [
                    -8.8623405,
                    40.1311067
                ]
            },
            "properties": {
                "title": "Hospital Distrital da Figueira da Foz"
            }
        },
        {
            "type": "Feature",
            "geometry": {
                "type": "Point",
                "coordinates": [
                    -8.6298927,
                    40.4012183
                ]
            },
            "properties": {
                "title": "Centro de Saúde de Febres"
            }
        },
        {
            "type": "Feature",
            "geometry": {
                "type": "Point",
                "coordinates": [
                    -8.8557301,
                    40.1550419
                ]
            },
            "properties": {
                "title": "Policlinica Central da Figueira da Foz"
            }
        },
        {
            "type": "Feature",
            "geometry": {
                "type": "Point",
                "coordinates": [
                    -8.6794302,
                    40.1792519
                ]
            },
            "properties": {
                "title": "Santa Casa da Misericórdia"
            }
        },
        {
            "type": "Feature",
            "geometry": {
                "type": "Point",
                "coordinates": [
                    -8.5876475,
                    40.3414743
                ]
            },
            "properties": {
                "title": "Centro de Saúde de Cantanhede"
            }
        },
        {
            "type": "Feature",
            "geometry": {
                "type": "Point",
                "coordinates": [
                    -8.424913,
                    40.2246679
                ]
            },
            "properties": {
                "title": "Idealmed - Unidade Hospitalar de Coimbra"
            }
        },
        {
            "type": "Feature",
            "geometry": {
                "type": "Point",
                "coordinates": [
                    -7.8554929,
                    40.3585594
                ]
            },
            "properties": {
                "title": "Fundação Aurélio Amaro Dinis"
            }
        },
        {
            "type": "Feature",
            "geometry": {
                "type": "Point",
                "coordinates": [
                    -8.6510938,
                    40.149944
                ]
            },
            "properties": {
                "title": "Centro de Saúde de Alfarelos"
            }
        },
        {
            "type": "Feature",
            "geometry": {
                "type": "Point",
                "coordinates": [
                    -8.2349624,
                    40.1242919
                ]
            },
            "properties": {
                "title": "Centro de Saúde"
            }
        },
        {
            "type": "Feature",
            "geometry": {
                "type": "Point",
                "coordinates": [
                    -8.807484,
                    40.0689011
                ]
            },
            "properties": {
                "title": "Posto Médico Paião"
            }
        },
        {
            "type": "Feature",
            "geometry": {
                "type": "Point",
                "coordinates": [
                    -8.6208654,
                    40.0627092
                ]
            },
            "properties": {
                "title": "Centro de Saúde de Soure"
            }
        },
        {
            "type": "Feature",
            "geometry": {
                "type": "Point",
                "coordinates": [
                    -8.8623405,
                    40.1311067
                ]
            },
            "properties": {
                "title": "Hospital Distrital da Figueira da Foz"
            }
        },
        {
            "type": "Feature",
            "geometry": {
                "type": "Point",
                "coordinates": [
                    -8.807484,
                    40.0689011
                ]
            },
            "properties": {
                "title": "Posto Médico Paião"
            }
        },
        {
            "type": "Feature",
            "geometry": {
                "type": "Point",
                "coordinates": [
                    -8.8541564,
                    40.1558441
                ]
            },
            "properties": {
                "title": "Centro de Saúde da Figueira da Foz"
            }
        },
        {
            "type": "Feature",
            "geometry": {
                "type": "Point",
                "coordinates": [
                    -8.8557301,
                    40.1550419
                ]
            },
            "properties": {
                "title": "Policlinica Central da Figueira da Foz"
            }
        },
        {
            "type": "Feature",
            "geometry": {
                "type": "Point",
                "coordinates": [
                    -8.2349624,
                    40.1242919
                ]
            },
            "properties": {
                "title": "Centro de Saúde"
            }
        },
        {
            "type": "Feature",
            "geometry": {
                "type": "Point",
                "coordinates": [
                    -8.7373668,
                    40.4270273
                ]
            },
            "properties": {
                "title": "Atendimento Permanente"
            }
        },
        {
            "type": "Feature",
            "geometry": {
                "type": "Point",
                "coordinates": [
                    -8.6794302,
                    40.1792519
                ]
            },
            "properties": {
                "title": "Santa Casa da Misericórdia"
            }
        },
        {
            "type": "Feature",
            "geometry": {
                "type": "Point",
                "coordinates": [
                    -7.8554929,
                    40.3585594
                ]
            },
            "properties": {
                "title": "Fundação Aurélio Amaro Dinis"
            }
        },
        {
            "type": "Feature",
            "geometry": {
                "type": "Point",
                "coordinates": [
                    -8.2837721,
                    40.2671828
                ]
            },
            "properties": {
                "title": "Centro de Saúde de Penacova"
            }
        },
        {
            "type": "Feature",
            "geometry": {
                "type": "Point",
                "coordinates": [
                    -8.3929031,
                    40.0276228
                ]
            },
            "properties": {
                "title": "Centro Saúde Penela"
            }
        },
        {
            "type": "Feature",
            "geometry": {
                "type": "Point",
                "coordinates": [
                    -8.6208654,
                    40.0627092
                ]
            },
            "properties": {
                "title": "Centro de Saúde de Soure"
            }
        },
        {
            "type": "Feature",
            "geometry": {
                "type": "Point",
                "coordinates": [
                    -8.6510938,
                    40.149944
                ]
            },
            "properties": {
                "title": "Centro de Saúde de Alfarelos"
            }
        },
        {
            "type": "Feature",
            "geometry": {
                "type": "Point",
                "coordinates": [
                    -8.6342525,
                    40.1611738
                ]
            },
            "properties": {
                "title": "Centro de Saúde da Granja do Ulmeiro"
            }
        },
        {
            "type": "Feature",
            "geometry": {
                "type": "Point",
                "coordinates": [
                    -7.9005561,
                    38.5678982
                ]
            },
            "properties": {
                "title": "Patrocínio"
            }
        },
        {
            "type": "Feature",
            "geometry": {
                "type": "Point",
                "coordinates": [
                    -7.914578,
                    38.5633397
                ]
            },
            "properties": {
                "title": "Hospital da Misericordia de Évora"
            }
        },
        {
            "type": "Feature",
            "geometry": {
                "type": "Point",
                "coordinates": [
                    -7.9022262,
                    38.5706931
                ]
            },
            "properties": {
                "title": "Espírito Santo"
            }
        },
        {
            "type": "Feature",
            "geometry": {
                "type": "Point",
                "coordinates": [
                    -8.2148101,
                    38.6523122
                ]
            },
            "properties": {
                "title": "Hospital São João de Deus"
            }
        },
        {
            "type": "Feature",
            "geometry": {
                "type": "Point",
                "coordinates": [
                    -8.2148101,
                    38.6523122
                ]
            },
            "properties": {
                "title": "Hospital São João de Deus"
            }
        },
        {
            "type": "Feature",
            "geometry": {
                "type": "Point",
                "coordinates": [
                    -8.2353712,
                    37.128705
                ]
            },
            "properties": {
                "title": "Centro de Saúde das Ferreiras"
            }
        },
        {
            "type": "Feature",
            "geometry": {
                "type": "Point",
                "coordinates": [
                    -8.2327871,
                    37.1030725
                ]
            },
            "properties": {
                "title": "HPP Hospital de Albufeira"
            }
        },
        {
            "type": "Feature",
            "geometry": {
                "type": "Point",
                "coordinates": [
                    -8.2549965,
                    37.0982292
                ]
            },
            "properties": {
                "title": "Centro de Saúde de Albufeira"
            }
        },
        {
            "type": "Feature",
            "geometry": {
                "type": "Point",
                "coordinates": [
                    -8.3152342,
                    37.1249495
                ]
            },
            "properties": {
                "title": "Primeiros Socorros"
            }
        },
        {
            "type": "Feature",
            "geometry": {
                "type": "Point",
                "coordinates": [
                    -8.7969488,
                    37.317939
                ]
            },
            "properties": {
                "title": "Centro de Saúde de Aljezur"
            }
        },
        {
            "type": "Feature",
            "geometry": {
                "type": "Point",
                "coordinates": [
                    -7.4678385,
                    37.2834433
                ]
            },
            "properties": {
                "title": "Unidade de Cuidados Continuados"
            }
        },
        {
            "type": "Feature",
            "geometry": {
                "type": "Point",
                "coordinates": [
                    -8.6821603,
                    37.0981644
                ]
            },
            "properties": {
                "title": "Hospital Privado de São Gonçalo de Lagos"
            }
        },
        {
            "type": "Feature",
            "geometry": {
                "type": "Point",
                "coordinates": [
                    -7.4191227,
                    37.1878757
                ]
            },
            "properties": {
                "title": "Centro Médico Internacional do Guadiana"
            }
        },
        {
            "type": "Feature",
            "geometry": {
                "type": "Point",
                "coordinates": [
                    -8.6887854,
                    37.1017261
                ]
            },
            "properties": {
                "title": "Centro de Saúde"
            }
        },
        {
            "type": "Feature",
            "geometry": {
                "type": "Point",
                "coordinates": [
                    -8.4396818,
                    37.1903769
                ]
            },
            "properties": {
                "title": "Santa Casa da Misericordia"
            }
        },
        {
            "type": "Feature",
            "geometry": {
                "type": "Point",
                "coordinates": [
                    -8.6700099,
                    37.0997089
                ]
            },
            "properties": {
                "title": "Hospital Distrital de Lagos"
            }
        },
        {
            "type": "Feature",
            "geometry": {
                "type": "Point",
                "coordinates": [
                    -8.5444341,
                    37.1385093
                ]
            },
            "properties": {
                "title": "Centro de Saúde de Portimão"
            }
        },
        {
            "type": "Feature",
            "geometry": {
                "type": "Point",
                "coordinates": [
                    -7.7049226,
                    37.0931122
                ]
            },
            "properties": {
                "title": "Extensão da Luz de Tavira do Centro de Saúde de Tavira"
            }
        },
        {
            "type": "Feature",
            "geometry": {
                "type": "Point",
                "coordinates": [
                    -8.0928145,
                    37.0711229
                ]
            },
            "properties": {
                "title": "Centro de Saúde Quarteira"
            }
        },
        {
            "type": "Feature",
            "geometry": {
                "type": "Point",
                "coordinates": [
                    -7.8404725,
                    37.0360147
                ]
            },
            "properties": {
                "title": "Centro de Saúde"
            }
        },
        {
            "type": "Feature",
            "geometry": {
                "type": "Point",
                "coordinates": [
                    -8.4554712,
                    37.1339844
                ]
            },
            "properties": {
                "title": "Clínica de Fisioterapia de Lagoa"
            }
        },
        {
            "type": "Feature",
            "geometry": {
                "type": "Point",
                "coordinates": [
                    -7.4678385,
                    37.2834433
                ]
            },
            "properties": {
                "title": "Unidade de Cuidados Continuados"
            }
        },