{
    "type": "FeatureCollection",
    "features": [
        {
            "type": "Feature",
            "geometry": {
                "type": "Point",
                "coordinates": [
                    -8.139678508,
                    41.63510527
                ]
            },
            "properties": {
                "title": "Centro de Saúde de Vieira do Minho"
            }
        },
        {
            "type": "Feature",
            "geometry": {
                "type": "Point",
                "coordinates": [
                    -7.43505946,
                    39.29024321
                ]
            },
            "properties": {
                "title": "Centro de Saúde de Portalegre"
            }
        },
        {
            "type": "Feature",
            "geometry": {
                "type": "Point",
                "coordinates": [
                    -7.140848158,
                    41.07928462
                ]
            },
            "properties": {
                "title": "Centro de Saúde de Vila Nova de Foz Côa"
            }
        },
        {
            "type": "Feature",
            "geometry": {
                "type": "Point",
                "coordinates": [
                    -7.261454172,
                    40.96131099
                ]
            },
            "properties": {
                "title": "Centro de Saúde Meda"
            }
        },
        {
            "type": "Feature",
            "geometry": {
                "type": "Point",
                "coordinates": [
                    -7.894106043,
                    38.16969678
                ]
            },
            "properties": {
                "title": "Centro de Saúde Cuba"
            }
        },
        {
            "type": "Feature",
            "geometry": {
                "type": "Point",
                "coordinates": [
                    -9.113609072,
                    38.62756804
                ]
            },
            "properties": {
                "title": "Unidade de Recursos Assistenciais Partilhados Amora"
            }
        },
        {
            "type": "Feature",
            "geometry": {
                "type": "Point",
                "coordinates": [
                    -7.503136022,
                    40.13448223
                ]
            },
            "properties": {
                "title": "Centro de Saúde do Fundão"
            }
        },
        {
            "type": "Feature",
            "geometry": {
                "type": "Point",
                "coordinates": [
                    -8.507822255,
                    41.16005942
                ]
            },
            "properties": {
                "title": "Centro de Saúde São Pedro da Cova/Rio Tinto - Unidade São Pedro da Cova"
            }
        },
        {
            "type": "Feature",
            "geometry": {
                "type": "Point",
                "coordinates": [
                    -7.549452618,
                    38.64616745
                ]
            },
            "properties": {
                "title": "Centro de Saúde do Redondo"
            }
        },
        {
            "type": "Feature",
            "geometry": {
                "type": "Point",
                "coordinates": [
                    -8.501560267,
                    41.09448243
                ]
            },
            "properties": {
                "title": "Centro de Saúde Gondomar/Foz do Sousa - Unidade Gondomar"
            }
        },
        {
            "type": "Feature",
            "geometry": {
                "type": "Point",
                "coordinates": [
                    -8.62075221,
                    40.06251659
                ]
            },
            "properties": {
                "title": "Centro de Saúde Soure"
            }
        },
        {
            "type": "Feature",
            "geometry": {
                "type": "Point",
                "coordinates": [
                    -8.11367633,
                    40.72223388
                ]
            },
            "properties": {
                "title": "Centro de Saúde Vouzela"
            }
        },
        {
            "type": "Feature",
            "geometry": {
                "type": "Point",
                "coordinates": [
                    -7.914527169,
                    40.64508869
                ]
            },
            "properties": {
                "title": "Centro de Saúde Viseu III"
            }
        },
        {
            "type": "Feature",
            "geometry": {
                "type": "Point",
                "coordinates": [
                    -8.761171345,
                    41.38595157
                ]
            },
            "properties": {
                "title": "Centro de Saúde Póvoa de Varzim"
            }
        },
        {
            "type": "Feature",
            "geometry": {
                "type": "Point",
                "coordinates": [
                    -8.783900125,
                    39.16554621
                ]
            },
            "properties": {
                "title": "Atendimento Complementar Cartaxo"
            }
        },
        {
            "type": "Feature",
            "geometry": {
                "type": "Point",
                "coordinates": [
                    -8.413874021,
                    41.80758437
                ]
            },
            "properties": {
                "title": "Centro de Saúde Ponte da Barca"
            }
        },
        {
            "type": "Feature",
            "geometry": {
                "type": "Point",
                "coordinates": [
                    -8.819796581,
                    39.66188989
                ]
            },
            "properties": {
                "title": "Centro de Saúde Batalha"
            }
        },
        {
            "type": "Feature",
            "geometry": {
                "type": "Point",
                "coordinates": [
                    -8.551673439,
                    37.32218435
                ]
            },
            "properties": {
                "title": "Atendimento Complementar Monchique"
            }
        },
        {
            "type": "Feature",
            "geometry": {
                "type": "Point",
                "coordinates": [
                    -9.35714142,
                    38.6975876
                ]
            },
            "properties": {
                "title": "Atendimento Complementar Parede"
            }
        },
        {
            "type": "Feature",
            "geometry": {
                "type": "Point",
                "coordinates": [
                    -17.09922393,
                    32.68546718
                ]
            },
            "properties": {
                "title": "Centro de Saúde Ponta do Sol"
            }
        },
        {
            "type": "Feature",
            "geometry": {
                "type": "Point",
                "coordinates": [
                    -9.068310422,
                    38.86219047
                ]
            },
            "properties": {
                "title": "Centro de Saúde Póvoa de Santa Iria"
            }
        },
        {
            "type": "Feature",
            "geometry": {
                "type": "Point",
                "coordinates": [
                    -9.382949375,
                    39.36378567
                ]
            },
            "properties": {
                "title": "Centro de Saúde Peniche"
            }
        },
        {
            "type": "Feature",
            "geometry": {
                "type": "Point",
                "coordinates": [
                    -9.230669255,
                    38.74979597
                ]
            },
            "properties": {
                "title": "Centro de Saúde Reboleira"
            }
        },
        {
            "type": "Feature",
            "geometry": {
                "type": "Point",
                "coordinates": [
                    -8.333203038,
                    41.20429179
                ]
            },
            "properties": {
                "title": "Centro de Saúde Paredes"
            }
        },
        {
            "type": "Feature",
            "geometry": {
                "type": "Point",
                "coordinates": [
                    -8.828570474,
                    41.69483837
                ]
            },
            "properties": {
                "title": "Centro de Saúde Viana do Castelo"
            }
        },
        {
            "type": "Feature",
            "geometry": {
                "type": "Point",
                "coordinates": [
                    -31.12936282,
                    39.45142643
                ]
            },
            "properties": {
                "title": "Centro de Saúde Santa Cruz das Flores"
            }
        },
        {
            "type": "Feature",
            "geometry": {
                "type": "Point",
                "coordinates": [
                    -8.132110969,
                    40.40716505
                ]
            },
            "properties": {
                "title": "Centro de Saúde Santa Comba Dão"
            }
        },
        {
            "type": "Feature",
            "geometry": {
                "type": "Point",
                "coordinates": [
                    -8.911726338,
                    37.08412707
                ]
            },
            "properties": {
                "title": "Centro de Saúde Vila do Bispo"
            }
        },
        {
            "type": "Feature",
            "geometry": {
                "type": "Point",
                "coordinates": [
                    -16.7406241,
                    32.73689934
                ]
            },
            "properties": {
                "title": "Centro de Saúde Caniçal"
            }
        },
        {
            "type": "Feature",
            "geometry": {
                "type": "Point",
                "coordinates": [
                    -8.688225927,
                    37.10180328
                ]
            },
            "properties": {
                "title": "Centro de Saúde Lagos"
            }
        },
        {
            "type": "Feature",
            "geometry": {
                "type": "Point",
                "coordinates": [
                    -8.290923171,
                    41.44858771
                ]
            },
            "properties": {
                "title": "Centro de Saúde Professor Arnaldo Sampaio - Guimarães"
            }
        },
        {
            "type": "Feature",
            "geometry": {
                "type": "Point",
                "coordinates": [
                    -9.139513926,
                    39.41145852
                ]
            },
            "properties": {
                "title": "Centro de Saúde das Caldas da Rainha"
            }
        },
        {
            "type": "Feature",
            "geometry": {
                "type": "Point",
                "coordinates": [
                    -8.737267354,
                    40.42667758
                ]
            },
            "properties": {
                "title": "Centro de Saúde Mira"
            }
        },
        {
            "type": "Feature",
            "geometry": {
                "type": "Point",
                "coordinates": [
                    -7.984919893,
                    38.71942383
                ]
            },
            "properties": {
                "title": "Centro de Saúde Arraiolos"
            }
        },
        {
            "type": "Feature",
            "geometry": {
                "type": "Point",
                "coordinates": [
                    -9.260740251,
                    38.76162764
                ]
            },
            "properties": {
                "title": "Centro de Saúde Queluz"
            }
        },
        {
            "type": "Feature",
            "geometry": {
                "type": "Point",
                "coordinates": [
                    -8.648327241,
                    40.74743377
                ]
            },
            "properties": {
                "title": "Centro de Saúde Murtosa"
            }
        },
        {
            "type": "Feature",
            "geometry": {
                "type": "Point",
                "coordinates": [
                    -8.084183237,
                    40.51724026
                ]
            },
            "properties": {
                "title": "Centro de Saúde Tondela"
            }
        },
        {
            "type": "Feature",
            "geometry": {
                "type": "Point",
                "coordinates": [
                    -17.22332631,
                    32.77688547
                ]
            },
            "properties": {
                "title": "Centro de Saúde Fajã da Ovelha"
            }
        },
        {
            "type": "Feature",
            "geometry": {
                "type": "Point",
                "coordinates": [
                    -9.256807707,
                    39.07955769
                ]
            },
            "properties": {
                "title": "Centro de Saúde de Torres Vedras"
            }
        },
        {
            "type": "Feature",
            "geometry": {
                "type": "Point",
                "coordinates": [
                    -8.803112574,
                    38.97720466
                ]
            },
            "properties": {
                "title": "Centro de Saúde Benavente"
            }
        },
        {
            "type": "Feature",
            "geometry": {
                "type": "Point",
                "coordinates": [
                    -8.697345592,
                    41.19866955
                ]
            },
            "properties": {
                "title": "Centro de Saúde Leça da Palmeira"
            }
        },
        {
            "type": "Feature",
            "geometry": {
                "type": "Point",
                "coordinates": [
                    -9.163445001,
                    38.80556999
                ]
            },
            "properties": {
                "title": "Atendimento Complementar Odivelas"
            }
        },
        {
            "type": "Feature",
            "geometry": {
                "type": "Point",
                "coordinates": [
                    -8.701242309,
                    39.23800899
                ]
            },
            "properties": {
                "title": "Atendimento Complementar Santarém"
            }
        },
        {
            "type": "Feature",
            "geometry": {
                "type": "Point",
                "coordinates": [
                    -7.855877969,
                    38.00943108
                ]
            },
            "properties": {
                "title": "Centro de Saúde Beja"
            }
        },
        {
            "type": "Feature",
            "geometry": {
                "type": "Point",
                "coordinates": [
                    -8.5645366,
                    41.91261443
                ]
            },
            "properties": {
                "title": "Centro de Saúde de Paredes de Coura"
            }
        },
        {
            "type": "Feature",
            "geometry": {
                "type": "Point",
                "coordinates": [
                    -8.681731172,
                    39.63333512
                ]
            },
            "properties": {
                "title": "Centro de Saúde Fátima"
            }
        },
        {
            "type": "Feature",
            "geometry": {
                "type": "Point",
                "coordinates": [
                    -7.611548236,
                    40.97224462
                ]
            },
            "properties": {
                "title": "Centro de Saúde Moimenta da Beira"
            }
        },
        {
            "type": "Feature",
            "geometry": {
                "type": "Point",
                "coordinates": [
                    -7.927318912,
                    40.89927273
                ]
            },
            "properties": {
                "title": "Centro de Saúde Castro Daire"
            }
        },
        {
            "type": "Feature",
            "geometry": {
                "type": "Point",
                "coordinates": [
                    -6.96304551,
                    41.34571458
                ]
            },
            "properties": {
                "title": "Centro de Saúde Alfândega da Fé"
            }
        },
        {
            "type": "Feature",
            "geometry": {
                "type": "Point",
                "coordinates": [
                    -9.154676453,
                    38.73466909
                ]
            },
            "properties": {
                "title": "Centro de Saúde Coração de Jesus"
            }
        },
        {
            "type": "Feature",
            "geometry": {
                "type": "Point",
                "coordinates": [
                    -8.972632109,
                    39.55100017
                ]
            },
            "properties": {
                "title": "Centro de Saúde Alcobaça"
            }
        },
        {
            "type": "Feature",
            "geometry": {
                "type": "Point",
                "coordinates": [
                    -9.134370443,
                    38.72403536
                ]
            },
            "properties": {
                "title": "Centro de Saúde Penha de França"
            }
        },
        {
            "type": "Feature",
            "geometry": {
                "type": "Point",
                "coordinates": [
                    -9.081436496,
                    38.98166205
                ]
            },
            "properties": {
                "title": "Centro de Saúde Arruda dos Vinhos"
            }
        },
        {
            "type": "Feature",
            "geometry": {
                "type": "Point",
                "coordinates": [
                    -7.175314076,
                    41.48403876
                ]
            },
            "properties": {
                "title": "Centro de Saúde Mirandela I"
            }
        },
        {
            "type": "Feature",
            "geometry": {
                "type": "Point",
                "coordinates": [
                    -8.159831546,
                    37.88092406
                ]
            },
            "properties": {
                "title": "Centro de Saúde Aljustrel"
            }
        },
        {
            "type": "Feature",
            "geometry": {
                "type": "Point",
                "coordinates": [
                    -8.608763108,
                    41.14284541
                ]
            },
            "properties": {
                "title": "Centro de Saúde Batalha - Porto"
            }
        },
        {
            "type": "Feature",
            "geometry": {
                "type": "Point",
                "coordinates": [
                    -17.0338928,
                    32.66852689
                ]
            },
            "properties": {
                "title": "Centro de Saúde Campanário"
            }
        },
        {
            "type": "Feature",
            "geometry": {
                "type": "Point",
                "coordinates": [
                    -8.796917164,
                    37.31802775
                ]
            },
            "properties": {
                "title": "Centro de Saúde de Aljezur"
            }
        },
        {
            "type": "Feature",
            "geometry": {
                "type": "Point",
                "coordinates": [
                    -7.240625244,
                    39.9270866
                ]
            },
            "properties": {
                "title": "Centro de Saúde de Idanha-a-Nova"
            }
        },
        {
            "type": "Feature",
            "geometry": {
                "type": "Point",
                "coordinates": [
                    -17.14625133,
                    32.7157906
                ]
            },
            "properties": {
                "title": "Centro de Saúde Arco Calheta"
            }
        },
        {
            "type": "Feature",
            "geometry": {
                "type": "Point",
                "coordinates": [
                    -17.17670893,
                    32.73161736
                ]
            },
            "properties": {
                "title": "Centro de Saúde da Calheta"
            }
        },
        {
            "type": "Feature",
            "geometry": {
                "type": "Point",
                "coordinates": [
                    -17.18758726,
                    32.7356038
                ]
            },
            "properties": {
                "title": "Centro de Saúde do Estreito da Calheta"
            }
        },
        {
            "type": "Feature",
            "geometry": {
                "type": "Point",
                "coordinates": [
                    -16.96640229,
                    32.72043699
                ]
            },
            "properties": {
                "title": "Centro de Saúde do Curral das Freiras"
            }
        },
        {
            "type": "Feature",
            "geometry": {
                "type": "Point",
                "coordinates": [
                    -16.97971406,
                    32.65111943
                ]
            },
            "properties": {
                "title": "Centro de Saúde de Câmara de Lobos"
            }
        },
        {
            "type": "Feature",
            "geometry": {
                "type": "Point",
                "coordinates": [
                    -9.193502568,
                    38.76064453
                ]
            },
            "properties": {
                "title": "Centro de Saúde da Pontinha"
            }
        },
        {
            "type": "Feature",
            "geometry": {
                "type": "Point",
                "coordinates": [
                    -7.794851461,
                    41.51834068
                ]
            },
            "properties": {
                "title": "Centro de Saúde de Ribeira de Pena"
            }
        },
        {
            "type": "Feature",
            "geometry": {
                "type": "Point",
                "coordinates": [
                    -16.906254,
                    32.6517446
                ]
            },
            "properties": {
                "title": "Centro de Saúde do Bom Jesus"
            }
        },
        {
            "type": "Feature",
            "geometry": {
                "type": "Point",
                "coordinates": [
                    -16.88142695,
                    32.80478027
                ]
            },
            "properties": {
                "title": "Centro de Saúde Ilha"
            }
        },
        {
            "type": "Feature",
            "geometry": {
                "type": "Point",
                "coordinates": [
                    -16.84805964,
                    32.65223985
                ]
            },
            "properties": {
                "title": "Centro de Saúde do Caniço"
            }
        },
        {
            "type": "Feature",
            "geometry": {
                "type": "Point",
                "coordinates": [
                    -7.165730024,
                    38.87051249
                ]
            },
            "properties": {
                "title": "Centro de Saúde de Elvas"
            }
        },
        {
            "type": "Feature",
            "geometry": {
                "type": "Point",
                "coordinates": [
                    -8.314118699,
                    41.3794182
                ]
            },
            "properties": {
                "title": "Centro de Saúde de Vizela"
            }
        },
        {
            "type": "Feature",
            "geometry": {
                "type": "Point",
                "coordinates": [
                    -8.427773925,
                    41.54709257
                ]
            },
            "properties": {
                "title": "Centro de Saúde de Braga"
            }
        },
        {
            "type": "Feature",
            "geometry": {
                "type": "Point",
                "coordinates": [
                    -8.945254144,
                    39.34388402
                ]
            },
            "properties": {
                "title": "Centro de Saúde de Rio Maior"
            }
        },
        {
            "type": "Feature",
            "geometry": {
                "type": "Point",
                "coordinates": [
                    -8.548063406,
                    40.92633256
                ]
            },
            "properties": {
                "title": "Centro de Saúde Santa Maria da Feira"
            }
        },
        {
            "type": "Feature",
            "geometry": {
                "type": "Point",
                "coordinates": [
                    -8.287492944,
                    39.68848357
                ]
            },
            "properties": {
                "title": "Centro de Saúde de Ferreira do Zêzere"
            }
        },
        {
            "type": "Feature",
            "geometry": {
                "type": "Point",
                "coordinates": [
                    -9.069317826,
                    39.59572574
                ]
            },
            "properties": {
                "title": "Centro de Saúde da Nazaré"
            }
        },
        {
            "type": "Feature",
            "geometry": {
                "type": "Point",
                "coordinates": [
                    -8.555880066,
                    41.33729738
                ]
            },
            "properties": {
                "title": "Centro de Saúde da Trofa"
            }
        },
        {
            "type": "Feature",
            "geometry": {
                "type": "Point",
                "coordinates": [
                    -7.602101047,
                    37.94118357
                ]
            },
            "properties": {
                "title": "Centro de Saúde de Serpa"
            }
        },
        {
            "type": "Feature",
            "geometry": {
                "type": "Point",
                "coordinates": [
                    -8.424657991,
                    40.25027402
                ]
            },
            "properties": {
                "title": "Centro de Saúde de Eiras"
            }
        },
        {
            "type": "Feature",
            "geometry": {
                "type": "Point",
                "coordinates": [
                    -8.686194187,
                    40.54685725
                ]
            },
            "properties": {
                "title": "Centro de Saúde de Vagos"
            }
        },
        {
            "type": "Feature",
            "geometry": {
                "type": "Point",
                "coordinates": [
                    -8.259109058,
                    42.11584743
                ]
            },
            "properties": {
                "title": "Centro de Saúde de Melgaço"
            }
        },
        {
            "type": "Feature",
            "geometry": {
                "type": "Point",
                "coordinates": [
                    -9.239466372,
                    38.72770712
                ]
            },
            "properties": {
                "title": "Centro de Saúde de Carnaxide"
            }
        },
        {
            "type": "Feature",
            "geometry": {
                "type": "Point",
                "coordinates": [
                    -9.116327153,
                    38.79758451
                ]
            },
            "properties": {
                "title": "Centro de Saúde de Sacavém"
            }
        },
        {
            "type": "Feature",
            "geometry": {
                "type": "Point",
                "coordinates": [
                    -8.302295692,
                    41.44699475
                ]
            },
            "properties": {
                "title": "Centro de Saúde da Amorosa"
            }
        },
        {
            "type": "Feature",
            "geometry": {
                "type": "Point",
                "coordinates": [
                    -7.046521833,
                    41.17447127
                ]
            },
            "properties": {
                "title": "Centro de Saúde de Torre de Moncorvo"
            }
        },
        {
            "type": "Feature",
            "geometry": {
                "type": "Point",
                "coordinates": [
                    -9.381300161,
                    38.80233373
                ]
            },
            "properties": {
                "title": "Centro de Saúde de Sintra"
            }
        },
        {
            "type": "Feature",
            "geometry": {
                "type": "Point",
                "coordinates": [
                    -8.620646087,
                    41.15638441
                ]
            },
            "properties": {
                "title": "Serviço de Atendimento a Utentes Sem Médico Porto Ocidental"
            }
        },
        {
            "type": "Feature",
            "geometry": {
                "type": "Point",
                "coordinates": [
                    -8.891725088,
                    38.52206169
                ]
            },
            "properties": {
                "title": "Centro de Saúde de Setúbal"
            }
        },
        {
            "type": "Feature",
            "geometry": {
                "type": "Point",
                "coordinates": [
                    -8.864034549,
                    38.5328519
                ]
            },
            "properties": {
                "title": "Centro de Súde de São Sebastião"
            }
        },
        {
            "type": "Feature",
            "geometry": {
                "type": "Point",
                "coordinates": [
                    -7.47516596,
                    37.4740783
                ]
            },
            "properties": {
                "title": "Centro de Saúde de Alcoutim"
            }
        },
        {
            "type": "Feature",
            "geometry": {
                "type": "Point",
                "coordinates": [
                    -8.625006331,
                    41.12656612
                ]
            },
            "properties": {
                "title": "Centro de Saúde de Barão do Corvo"
            }
        },
        {
            "type": "Feature",
            "geometry": {
                "type": "Point",
                "coordinates": [
                    -8.054420595,
                    40.21589841
                ]
            },
            "properties": {
                "title": "Centro de Saúde de Arganil"
            }
        },
        {
            "type": "Feature",
            "geometry": {
                "type": "Point",
                "coordinates": [
                    -8.308562188,
                    41.71696505
                ]
            },
            "properties": {
                "title": "Centro de Saúde de Terras de Bouro"
            }
        },
        {
            "type": "Feature",
            "geometry": {
                "type": "Point",
                "coordinates": [
                    -8.647080063,
                    40.63188735
                ]
            },
            "properties": {
                "title": "Centro de Saúde de Aveiro"
            }
        },
        {
            "type": "Feature",
            "geometry": {
                "type": "Point",
                "coordinates": [
                    -8.743350998,
                    41.94464765
                ]
            },
            "properties": {
                "title": "Centro de Saúde de Vila Nova de Cerveira"
            }
        },
        {
            "type": "Feature",
            "geometry": {
                "type": "Point",
                "coordinates": [
                    -9.161148361,
                    38.77212749
                ]
            },
            "properties": {
                "title": "Centro de Saúde do Lumiar"
            }
        },
        {
            "type": "Feature",
            "geometry": {
                "type": "Point",
                "coordinates": [
                    -8.091451583,
                    41.07418642
                ]
            },
            "properties": {
                "title": "Centro de Saúde de Cinfães"
            }
        },
        {
            "type": "Feature",
            "geometry": {
                "type": "Point",
                "coordinates": [
                    -9.099670369,
                    38.64082856
                ]
            },
            "properties": {
                "title": "Centro de Saúde do Seixal"
            }
        },
        {
            "type": "Feature",
            "geometry": {
                "type": "Point",
                "coordinates": [
                    -9.102891523,
                    39.23776174
                ]
            },
            "properties": {
                "title": "Centro de Saúde do Cadaval"
            }
        },
        {
            "type": "Feature",
            "geometry": {
                "type": "Point",
                "coordinates": [
                    -7.7271595,
                    40.84980637
                ]
            },
            "properties": {
                "title": "Centro de Saúde de Vila Nova de Paiva"
            }
        },
        {
            "type": "Feature",
            "geometry": {
                "type": "Point",
                "coordinates": [
                    -25.24420284,
                    37.74862518
                ]
            },
            "properties": {
                "title": "Centro de Saúde de Povoação"
            }
        },
        {
            "type": "Feature",
            "geometry": {
                "type": "Point",
                "coordinates": [
                    -8.413784211,
                    41.22037974
                ]
            },
            "properties": {
                "title": "Centro de Saúde de Rebordosa"
            }
        },
        {
            "type": "Feature",
            "geometry": {
                "type": "Point",
                "coordinates": [
                    -9.421193282,
                    38.70266042
                ]
            },
            "properties": {
                "title": "Centro de Cascais"
            }
        },
        {
            "type": "Feature",
            "geometry": {
                "type": "Point",
                "coordinates": [
                    -9.334415621,
                    38.93958915
                ]
            },
            "properties": {
                "title": "Centro de Saúde de Mafra"
            }
        },
        {
            "type": "Feature",
            "geometry": {
                "type": "Point",
                "coordinates": [
                    -7.694738726,
                    40.6782991
                ]
            },
            "properties": {
                "title": "Centro de Saúde de Penalva do Castelo"
            }
        },
        {
            "type": "Feature",
            "geometry": {
                "type": "Point",
                "coordinates": [
                    -8.585122461,
                    41.65656735
                ]
            },
            "properties": {
                "title": "Centro de Saúde de Freixo  - Ponte de Lima"
            }
        },
        {
            "type": "Feature",
            "geometry": {
                "type": "Point",
                "coordinates": [
                    -8.578907404,
                    41.76659585
                ]
            },
            "properties": {
                "title": "Centro de Saúde de Ponte de Lima"
            }
        },
        {
            "type": "Feature",
            "geometry": {
                "type": "Point",
                "coordinates": [
                    -8.455995393,
                    40.38013542
                ]
            },
            "properties": {
                "title": "Centro de Saúde da Mealhada"
            }
        },
        {
            "type": "Feature",
            "geometry": {
                "type": "Point",
                "coordinates": [
                    -8.037505333,
                    41.16038579
                ]
            },
            "properties": {
                "title": "Centro de Saúde Baião"
            }
        },
        {
            "type": "Feature",
            "geometry": {
                "type": "Point",
                "coordinates": [
                    -8.092959817,
                    37.07078757
                ]
            },
            "properties": {
                "title": "Centro de Saúde de Quarteira"
            }
        },
        {
            "type": "Feature",
            "geometry": {
                "type": "Point",
                "coordinates": [
                    -7.353824191,
                    40.77558639
                ]
            },
            "properties": {
                "title": "Centro de Saúde de Trancoso"
            }
        },
        {
            "type": "Feature",
            "geometry": {
                "type": "Point",
                "coordinates": [
                    -6.526051841,
                    41.59064047
                ]
            },
            "properties": {
                "title": "Centro de Saúde de Vimioso"
            }
        },
        {
            "type": "Feature",
            "geometry": {
                "type": "Point",
                "coordinates": [
                    -8.436480145,
                    39.91402857
                ]
            },
            "properties": {
                "title": "Centro de Saúde de Ansião"
            }
        },
        {
            "type": "Feature",
            "geometry": {
                "type": "Point",
                "coordinates": [
                    -8.526717275,
                    41.4065574
                ]
            },
            "properties": {
                "title": "Centro de Saúde Famalicão I"
            }
        },
        {
            "type": "Feature",
            "geometry": {
                "type": "Point",
                "coordinates": [
                    -8.415549884,
                    41.38347618
                ]
            },
            "properties": {
                "title": "Centro de Saúde Famalicão II"
            }
        },
        {
            "type": "Feature",
            "geometry": {
                "type": "Point",
                "coordinates": [
                    -7.967968832,
                    41.1050858
                ]
            },
            "properties": {
                "title": "Unidade de Cuidados de Saúde Primários de Resende"
            }
        },
        {
            "type": "Feature",
            "geometry": {
                "type": "Point",
                "coordinates": [
                    -8.458562782,
                    37.1361942
                ]
            },
            "properties": {
                "title": "Centro de Saúde da Lagoa"
            }
        },
        {
            "type": "Feature",
            "geometry": {
                "type": "Point",
                "coordinates": [
                    -9.008779537,
                    38.92587612
                ]
            },
            "properties": {
                "title": "Centro de Saúde de Alhandra"
            }
        },
        {
            "type": "Feature",
            "geometry": {
                "type": "Point",
                "coordinates": [
                    -9.227829943,
                    38.70355266
                ]
            },
            "properties": {
                "title": "Unidade de Saúde de Algés - Atendimento Complementar Algés"
            }
        },
        {
            "type": "Feature",
            "geometry": {
                "type": "Point",
                "coordinates": [
                    -16.93385425,
                    32.64385251
                ]
            },
            "properties": {
                "title": "Centro de Saúde Dr. Rui Adriano de Freitas"
            }
        },
        {
            "type": "Feature",
            "geometry": {
                "type": "Point",
                "coordinates": [
                    -8.012596005,
                    37.14548009
                ]
            },
            "properties": {
                "title": "Centro de Saúde de Loulé"
            }
        },
        {
            "type": "Feature",
            "geometry": {
                "type": "Point",
                "coordinates": [
                    -7.661085326,
                    37.6405927
                ]
            },
            "properties": {
                "title": "Centro de Saúde de Mértola"
            }
        },
        {
            "type": "Feature",
            "geometry": {
                "type": "Point",
                "coordinates": [
                    -16.89899659,
                    32.6484528
                ]
            },
            "properties": {
                "title": "Centro de Saúde de Santiago"
            }
        },
        {
            "type": "Feature",
            "geometry": {
                "type": "Point",
                "coordinates": [
                    -9.052773772,
                    38.6441163
                ]
            },
            "properties": {
                "title": "Centro de Saúde da Quinta da Lomba"
            }
        },
        {
            "type": "Feature",
            "geometry": {
                "type": "Point",
                "coordinates": [
                    -9.05310795,
                    38.66950912
                ]
            },
            "properties": {
                "title": "Centro de Saúde do Barreiro"
            }
        },
        {
            "type": "Feature",
            "geometry": {
                "type": "Point",
                "coordinates": [
                    -9.041545614,
                    38.65866373
                ]
            },
            "properties": {
                "title": "Centro de Saúde da Baixa da Banheira"
            }
        },
        {
            "type": "Feature",
            "geometry": {
                "type": "Point",
                "coordinates": [
                    -8.482442583,
                    40.68595955
                ]
            },
            "properties": {
                "title": "Centro de Saúde de Albergaria-a-Velha"
            }
        },
        {
            "type": "Feature",
            "geometry": {
                "type": "Point",
                "coordinates": [
                    -17.20827519,
                    32.84048097
                ]
            },
            "properties": {
                "title": "Centro de Saúde de Achadas da Cruz"
            }
        },
        {
            "type": "Feature",
            "geometry": {
                "type": "Point",
                "coordinates": [
                    -9.16448654,
                    38.7139987
                ]
            },
            "properties": {
                "title": "Centro de Saúde Santo Condestável"
            }
        },
        {
            "type": "Feature",
            "geometry": {
                "type": "Point",
                "coordinates": [
                    -17.21001955,
                    32.73691706
                ]
            },
            "properties": {
                "title": "Centro de Saúde Jardim do Mar"
            }
        },
        {
            "type": "Feature",
            "geometry": {
                "type": "Point",
                "coordinates": [
                    -9.236738406,
                    38.64496893
                ]
            },
            "properties": {
                "title": "Centro de Saúde Costa da Caparica"
            }
        },
        {
            "type": "Feature",
            "geometry": {
                "type": "Point",
                "coordinates": [
                    -8.545149033,
                    37.13810862
                ]
            },
            "properties": {
                "title": "Centro de Saúde de Portimão"
            }
        },
        {
            "type": "Feature",
            "geometry": {
                "type": "Point",
                "coordinates": [
                    -16.98875017,
                    32.82447743
                ]
            },
            "properties": {
                "title": "Centro de Saúde de Ponta Delgada"
            }
        },
        {
            "type": "Feature",
            "geometry": {
                "type": "Point",
                "coordinates": [
                    -9.294996549,
                    38.77465772
                ]
            },
            "properties": {
                "title": "Centro de Saúde de Agualva"
            }
        },
        {
            "type": "Feature",
            "geometry": {
                "type": "Point",
                "coordinates": [
                    -9.308658759,
                    38.76925131
                ]
            },
            "properties": {
                "title": "Centro de Saúde do Cacém - Olival"
            }
        },
        {
            "type": "Feature",
            "geometry": {
                "type": "Point",
                "coordinates": [
                    -17.248333,
                    32.81165156
                ]
            },
            "properties": {
                "title": "Centro de Saúde de Ponta do Pargo"
            }
        },
        {
            "type": "Feature",
            "geometry": {
                "type": "Point",
                "coordinates": [
                    -8.359151184,
                    41.62987023
                ]
            },
            "properties": {
                "title": "Centro de Saúde de Amares"
            }
        },
        {
            "type": "Feature",
            "geometry": {
                "type": "Point",
                "coordinates": [
                    -8.992323323,
                    38.64815607
                ]
            },
            "properties": {
                "title": "Centro de Saúde da Moita"
            }
        },
        {
            "type": "Feature",
            "geometry": {
                "type": "Point",
                "coordinates": [
                    -8.647129447,
                    42.02303471
                ]
            },
            "properties": {
                "title": "Centro de Saúde de Valença"
            }
        },
        {
            "type": "Feature",
            "geometry": {
                "type": "Point",
                "coordinates": [
                    -6.97750046,
                    38.13062117
                ]
            },
            "properties": {
                "title": "Centro de Saúde de Barrancos"
            }
        },
        {
            "type": "Feature",
            "geometry": {
                "type": "Point",
                "coordinates": [
                    -8.173567059,
                    39.07855778
                ]
            },
            "properties": {
                "title": "Centro de Saúde de Montargil"
            }
        },
        {
            "type": "Feature",
            "geometry": {
                "type": "Point",
                "coordinates": [
                    -7.660609903,
                    39.19735971
                ]
            },
            "properties": {
                "title": "Centro de Saúde de Alter do Chão"
            }
        },
        {
            "type": "Feature",
            "geometry": {
                "type": "Point",
                "coordinates": [
                    -6.809801394,
                    41.09217391
                ]
            },
            "properties": {
                "title": "Centro de Saúde de Freixo de Espada à Cinta"
            }
        },
        {
            "type": "Feature",
            "geometry": {
                "type": "Point",
                "coordinates": [
                    -17.00865992,
                    32.66305067
                ]
            },
            "properties": {
                "title": "Centro de Saúde da Quinta Grande"
            }
        },
        {
            "type": "Feature",
            "geometry": {
                "type": "Point",
                "coordinates": [
                    -25.67743488,
                    37.75322239
                ]
            },
            "properties": {
                "title": "Centro de Saúde de Ponta Delgada"
            }
        },
        {
            "type": "Feature",
            "geometry": {
                "type": "Point",
                "coordinates": [
                    -7.909791937,
                    38.57857174
                ]
            },
            "properties": {
                "title": "Centro de Saúde de Évora"
            }
        },
        {
            "type": "Feature",
            "geometry": {
                "type": "Point",
                "coordinates": [
                    -8.872875264,
                    39.06908621
                ]
            },
            "properties": {
                "title": "Centro de Saúde da Azambuja"
            }
        },
        {
            "type": "Feature",
            "geometry": {
                "type": "Point",
                "coordinates": [
                    -8.625946919,
                    41.2333005
                ]
            },
            "properties": {
                "title": "SASU Maia"
            }
        },
        {
            "type": "Feature",
            "geometry": {
                "type": "Point",
                "coordinates": [
                    -8.677380716,
                    40.17874829
                ]
            },
            "properties": {
                "title": "Centro de Saúde de Montemor-o-Velho"
            }
        },
        {
            "type": "Feature",
            "geometry": {
                "type": "Point",
                "coordinates": [
                    -8.617276348,
                    41.52149231
                ]
            },
            "properties": {
                "title": "Centro de Saúde de Barcelinhos"
            }
        },
        {
            "type": "Feature",
            "geometry": {
                "type": "Point",
                "coordinates": [
                    -7.30713238,
                    41.24699642
                ]
            },
            "properties": {
                "title": "Centro de Saúde de Carrazeda de Ansiães"
            }
        },
        {
            "type": "Feature",
            "geometry": {
                "type": "Point",
                "coordinates": [
                    -9.117661446,
                    38.72422326
                ]
            },
            "properties": {
                "title": "Centro de Saúde de São João - Lisboa"
            }
        },
        {
            "type": "Feature",
            "geometry": {
                "type": "Point",
                "coordinates": [
                    -28.52340264,
                    38.52988651
                ]
            },
            "properties": {
                "title": "Centro de Saúde da Madalena"
            }
        },
        {
            "type": "Feature",
            "geometry": {
                "type": "Point",
                "coordinates": [
                    -9.351741507,
                    38.79020745
                ]
            },
            "properties": {
                "title": "Centro de Saúde Algueirão - Mem Martins"
            }
        },
        {
            "type": "Feature",
            "geometry": {
                "type": "Point",
                "coordinates": [
                    -7.416678939,
                    38.77605947
                ]
            },
            "properties": {
                "title": "Centro de Saúde de Vila Viçosa"
            }
        },
        {
            "type": "Feature",
            "geometry": {
                "type": "Point",
                "coordinates": [
                    -7.280567653,
                    39.12307532
                ]
            },
            "properties": {
                "title": "Centro de Saúde de Arronches"
            }
        },
        {
            "type": "Feature",
            "geometry": {
                "type": "Point",
                "coordinates": [
                    -8.679982662,
                    41.18601788
                ]
            },
            "properties": {
                "title": "Centro de Saúde de Matosinhos"
            }
        },
        {
            "type": "Feature",
            "geometry": {
                "type": "Point",
                "coordinates": [
                    -7.505206148,
                    40.26738856
                ]
            },
            "properties": {
                "title": "Centro de Saúde da Covilhã"
            }
        },
        {
            "type": "Feature",
            "geometry": {
                "type": "Point",
                "coordinates": [
                    -7.479637179,
                    41.75427271
                ]
            },
            "properties": {
                "title": "Centro de Saúde Chaves II"
            }
        },
        {
            "type": "Feature",
            "geometry": {
                "type": "Point",
                "coordinates": [
                    -7.464411244,
                    41.74720169
                ]
            },
            "properties": {
                "title": "Centro de Saúde Chaves I"
            }
        },
        {
            "type": "Feature",
            "geometry": {
                "type": "Point",
                "coordinates": [
                    -8.432074304,
                    37.19619255
                ]
            },
            "properties": {
                "title": "Centro de Saúde de Silves"
            }
        },
        {
            "type": "Feature",
            "geometry": {
                "type": "Point",
                "coordinates": [
                    -8.376873872,
                    41.27735265
                ]
            },
            "properties": {
                "title": "Centro de Saúde de Paços de Ferreira"
            }
        },
        {
            "type": "Feature",
            "geometry": {
                "type": "Point",
                "coordinates": [
                    -7.785852902,
                    41.20981361
                ]
            },
            "properties": {
                "title": "Centro de Saúde de Santa Marta de Penaguião"
            }
        },
        {
            "type": "Feature",
            "geometry": {
                "type": "Point",
                "coordinates": [
                    -8.031475139,
                    37.08523891
                ]
            },
            "properties": {
                "title": "Atendimento Complementar de Almancil"
            }
        },
        {
            "type": "Feature",
            "geometry": {
                "type": "Point",
                "coordinates": [
                    -7.664781579,
                    41.6899537
                ]
            },
            "properties": {
                "title": "Centro de Saúde de Boticas"
            }
        },
        {
            "type": "Feature",
            "geometry": {
                "type": "Point",
                "coordinates": [
                    -16.81783289,
                    32.72432674
                ]
            },
            "properties": {
                "title": "Centro de Saúde Santo da Serra"
            }
        },
        {
            "type": "Feature",
            "geometry": {
                "type": "Point",
                "coordinates": [
                    -28.33359326,
                    38.53052411
                ]
            },
            "properties": {
                "title": "Centro de Saúde de São Roque do Pico"
            }
        },
        {
            "type": "Feature",
            "geometry": {
                "type": "Point",
                "coordinates": [
                    -7.709624927,
                    40.41724218
                ]
            },
            "properties": {
                "title": "Centro de Saúde de Seia"
            }
        },
        {
            "type": "Feature",
            "geometry": {
                "type": "Point",
                "coordinates": [
                    -9.15612298,
                    39.35431563
                ]
            },
            "properties": {
                "title": "Centro de Saúde de Óbidos"
            }
        },
        {
            "type": "Feature",
            "geometry": {
                "type": "Point",
                "coordinates": [
                    -8.255092725,
                    37.09828889
                ]
            },
            "properties": {
                "title": "Centro de Saúde de Albufeira"
            }
        },
        {
            "type": "Feature",
            "geometry": {
                "type": "Point",
                "coordinates": [
                    -7.068731883,
                    40.77112285
                ]
            },
            "properties": {
                "title": "Centro de Saúde de Pinhel"
            }
        },
        {
            "type": "Feature",
            "geometry": {
                "type": "Point",
                "coordinates": [
                    -8.557017958,
                    41.21667223
                ]
            },
            "properties": {
                "title": "SASU Ermesinde"
            }
        },
        {
            "type": "Feature",
            "geometry": {
                "type": "Point",
                "coordinates": [
                    -28.01350663,
                    38.60550389
                ]
            },
            "properties": {
                "title": "Centro de Saúde da Calheta de São Jorge"
            }
        },
        {
            "type": "Feature",
            "geometry": {
                "type": "Point",
                "coordinates": [
                    -7.58603374,
                    38.84860041
                ]
            },
            "properties": {
                "title": "Centro de Saúde de Estremoz"
            }
        },
        {
            "type": "Feature",
            "geometry": {
                "type": "Point",
                "coordinates": [
                    -8.931252728,
                    39.74230336
                ]
            },
            "properties": {
                "title": "Centro de Saúde da Marinha Grande"
            }
        },
        {
            "type": "Feature",
            "geometry": {
                "type": "Point",
                "coordinates": [
                    -17.22974679,
                    32.75757422
                ]
            },
            "properties": {
                "title": "Centro de Saúde do Paul do Mar"
            }
        },
        {
            "type": "Feature",
            "geometry": {
                "type": "Point",
                "coordinates": [
                    -8.897146209,
                    38.57083178
                ]
            },
            "properties": {
                "title": "Centro de Saúde de Palmela"
            }
        },
        {
            "type": "Feature",
            "geometry": {
                "type": "Point",
                "coordinates": [
                    -31.11268487,
                    39.672604
                ]
            },
            "properties": {
                "title": "Centro de Saúde da Ilha do Corvo"
            }
        },
        {
            "type": "Feature",
            "geometry": {
                "type": "Point",
                "coordinates": [
                    -8.171600859,
                    41.4464921
                ]
            },
            "properties": {
                "title": "Centro de Saúde de Fafe"
            }
        },
        {
            "type": "Feature",
            "geometry": {
                "type": "Point",
                "coordinates": [
                    -7.066285818,
                    39.02016386
                ]
            },
            "properties": {
                "title": "Centro de Saúde de Campo Maior"
            }
        },
        {
            "type": "Feature",
            "geometry": {
                "type": "Point",
                "coordinates": [
                    -16.91378554,
                    32.66731645
                ]
            },
            "properties": {
                "title": "Centro de Saúde do Monte"
            }
        },
        {
            "type": "Feature",
            "geometry": {
                "type": "Point",
                "coordinates": [
                    -28.00952657,
                    39.07970927
                ]
            },
            "properties": {
                "title": "Centro de Saúde de Santa Cruz da Graciosa"
            }
        },
        {
            "type": "Feature",
            "geometry": {
                "type": "Point",
                "coordinates": [
                    -8.421840995,
                    41.84270568
                ]
            },
            "properties": {
                "title": "Centro de Saúde de Arcos de Valdevez"
            }
        },
        {
            "type": "Feature",
            "geometry": {
                "type": "Point",
                "coordinates": [
                    -8.560864685,
                    41.17440499
                ]
            },
            "properties": {
                "title": "Centro de Saúde São Pedro da Cova/Rio Tinto - Unidade Rio Tinto"
            }
        },
        {
            "type": "Feature",
            "geometry": {
                "type": "Point",
                "coordinates": [
                    -7.994205963,
                    38.25845389
                ]
            },
            "properties": {
                "title": "Centro de Saúde do Alvito"
            }
        },
        {
            "type": "Feature",
            "geometry": {
                "type": "Point",
                "coordinates": [
                    -7.675458986,
                    39.65718072
                ]
            },
            "properties": {
                "title": "Centro de Saúde Vila Velha de Rodão"
            }
        },
        {
            "type": "Feature",
            "geometry": {
                "type": "Point",
                "coordinates": [
                    -8.455395744,
                    38.67469766
                ]
            },
            "properties": {
                "title": "Centro de Saúde Vendas Novas"
            }
        },
        {
            "type": "Feature",
            "geometry": {
                "type": "Point",
                "coordinates": [
                    -8.166315793,
                    38.94347409
                ]
            },
            "properties": {
                "title": "Centro de Saúde de Mora"
            }
        },
        {
            "type": "Feature",
            "geometry": {
                "type": "Point",
                "coordinates": [
                    -7.011083628,
                    41.82992884
                ]
            },
            "properties": {
                "title": "Centro de Saúde Vinhais"
            }
        },
        {
            "type": "Feature",
            "geometry": {
                "type": "Point",
                "coordinates": [
                    -16.83127731,
                    32.77170856
                ]
            },
            "properties": {
                "title": "Centro de Saúde de Porto da Cruz"
            }
        },
        {
            "type": "Feature",
            "geometry": {
                "type": "Point",
                "coordinates": [
                    -8.460099194,
                    40.19380071
                ]
            },
            "properties": {
                "title": "Centro de Saúde São Martinho do Bispo"
            }
        },
        {
            "type": "Feature",
            "geometry": {
                "type": "Point",
                "coordinates": [
                    -8.527535562,
                    38.96227777
                ]
            },
            "properties": {
                "title": "Centro de Saúde de Coruche"
            }
        },
        {
            "type": "Feature",
            "geometry": {
                "type": "Point",
                "coordinates": [
                    -17.18272281,
                    32.85762462
                ]
            },
            "properties": {
                "title": "Centro de Saúde Santa do Porto Moniz"
            }
        },
        {
            "type": "Feature",
            "geometry": {
                "type": "Point",
                "coordinates": [
                    -8.998693418,
                    39.05076685
                ]
            },
            "properties": {
                "title": "Centro de Saúde de Alenquer"
            }
        },
        {
            "type": "Feature",
            "geometry": {
                "type": "Point",
                "coordinates": [
                    -8.05976934,
                    37.51560751
                ]
            },
            "properties": {
                "title": "Centro de Saúde Almodôvar"
            }
        },
        {
            "type": "Feature",
            "geometry": {
                "type": "Point",
                "coordinates": [
                    -16.9279264,
                    32.67029431
                ]
            },
            "properties": {
                "title": "Centro de Saúde São Roque"
            }
        },
        {
            "type": "Feature",
            "geometry": {
                "type": "Point",
                "coordinates": [
                    -9.162125431,
                    38.71119064
                ]
            },
            "properties": {
                "title": "Centro de Saúde da Lapa"
            }
        },
        {
            "type": "Feature",
            "geometry": {
                "type": "Point",
                "coordinates": [
                    -7.776115338,
                    41.02214994
                ]
            },
            "properties": {
                "title": "Centro de Saúde de Tarouca"
            }
        },
        {
            "type": "Feature",
            "geometry": {
                "type": "Point",
                "coordinates": [
                    -8.575222838,
                    39.65924515
                ]
            },
            "properties": {
                "title": "Centro de Saúde de Ourém"
            }
        },
        {
            "type": "Feature",
            "geometry": {
                "type": "Point",
                "coordinates": [
                    -7.788481333,
                    41.16647923
                ]
            },
            "properties": {
                "title": "Centro de Saúde de Peso da Régua"
            }
        },
        {
            "type": "Feature",
            "geometry": {
                "type": "Point",
                "coordinates": [
                    -7.963842866,
                    41.41171743
                ]
            },
            "properties": {
                "title": "Centro de Saúde de Mondim de Basto"
            }
        },
        {
            "type": "Feature",
            "geometry": {
                "type": "Point",
                "coordinates": [
                    -9.153958344,
                    38.67775926
                ]
            },
            "properties": {
                "title": "Centro de Saúde de Almada"
            }
        },
        {
            "type": "Feature",
            "geometry": {
                "type": "Point",
                "coordinates": [
                    -7.886751563,
                    39.05322214
                ]
            },
            "properties": {
                "title": "Centro de Saúde Avis"
            }
        },
        {
            "type": "Feature",
            "geometry": {
                "type": "Point",
                "coordinates": [
                    -8.014578789,
                    39.25099825
                ]
            },
            "properties": {
                "title": "Centro de Saúde Ponte de Sôr"
            }
        },
        {
            "type": "Feature",
            "geometry": {
                "type": "Point",
                "coordinates": [
                    -9.23473814,
                    38.75825616
                ]
            },
            "properties": {
                "title": "Centro de Saúde da Amadora"
            }
        },
        {
            "type": "Feature",
            "geometry": {
                "type": "Point",
                "coordinates": [
                    -9.101817991,
                    38.74588507
                ]
            },
            "properties": {
                "title": "Centro de Saúde de Marvila"
            }
        },
        {
            "type": "Feature",
            "geometry": {
                "type": "Point",
                "coordinates": [
                    -16.33246034,
                    33.05957173
                ]
            },
            "properties": {
                "title": "Centro de Saúde Dr. Francisco Jardim"
            }
        },
        {
            "type": "Feature",
            "geometry": {
                "type": "Point",
                "coordinates": [
                    -7.171500043,
                    40.16635936
                ]
            },
            "properties": {
                "title": "Centro de Saúde de Penamacor"
            }
        },
        {
            "type": "Feature",
            "geometry": {
                "type": "Point",
                "coordinates": [
                    -9.343663806,
                    38.79537774
                ]
            },
            "properties": {
                "title": "Atendimento Complementar Algueirão"
            }
        },
        {
            "type": "Feature",
            "geometry": {
                "type": "Point",
                "coordinates": [
                    -7.693531054,
                    41.10785799
                ]
            },
            "properties": {
                "title": "Centro de Saúde de Armamar"
            }
        },
        {
            "type": "Feature",
            "geometry": {
                "type": "Point",
                "coordinates": [
                    -8.110577088,
                    40.15691905
                ]
            },
            "properties": {
                "title": "Centro de Saúde de Góis"
            }
        },
        {
            "type": "Feature",
            "geometry": {
                "type": "Point",
                "coordinates": [
                    -8.612660745,
                    41.16948339
                ]
            },
            "properties": {
                "title": "Centro de Saúde de Paranhos"
            }
        },
        {
            "type": "Feature",
            "geometry": {
                "type": "Point",
                "coordinates": [
                    -7.986399534,
                    40.43772128
                ]
            },
            "properties": {
                "title": "Centro de Saúde de Carregal do Sal"
            }
        },
        {
            "type": "Feature",
            "geometry": {
                "type": "Point",
                "coordinates": [
                    -17.13455915,
                    32.70202415
                ]
            },
            "properties": {
                "title": "Centro de Saúde de Madalena do Mar"
            }
        },
        {
            "type": "Feature",
            "geometry": {
                "type": "Point",
                "coordinates": [
                    -7.452060212,
                    38.13802779
                ]
            },
            "properties": {
                "title": "Centro de Saúde Moura"
            }
        },
        {
            "type": "Feature",
            "geometry": {
                "type": "Point",
                "coordinates": [
                    -8.964877964,
                    38.74820431
                ]
            },
            "properties": {
                "title": "Centro de Saúde de Alcochete"
            }
        },
        {
            "type": "Feature",
            "geometry": {
                "type": "Point",
                "coordinates": [
                    -7.563129887,
                    41.11886855
                ]
            },
            "properties": {
                "title": "Centro de Saúde Tabuaço"
            }
        },
        {
            "type": "Feature",
            "geometry": {
                "type": "Point",
                "coordinates": [
                    -8.620586399,
                    41.09465753
                ]
            },
            "properties": {
                "title": "Centro de Saúde Arcozelo/Boa Nova – Unidade Boa Nova"
            }
        },
        {
            "type": "Feature",
            "geometry": {
                "type": "Point",
                "coordinates": [
                    -8.143441787,
                    39.67611443
                ]
            },
            "properties": {
                "title": "Centro de Saúde de Vila de Rei"
            }
        },
        {
            "type": "Feature",
            "geometry": {
                "type": "Point",
                "coordinates": [
                    -8.02167564,
                    40.36250766
                ]
            },
            "properties": {
                "title": "Centro de Saúde de Tábua"
            }
        },
        {
            "type": "Feature",
            "geometry": {
                "type": "Point",
                "coordinates": [
                    -17.02617159,
                    32.72728486
                ]
            },
            "properties": {
                "title": "Centro de Saúde da Serra D'agua"
            }
        },
        {
            "type": "Feature",
            "geometry": {
                "type": "Point",
                "coordinates": [
                    -17.05754448,
                    32.6798509
                ]
            },
            "properties": {
                "title": "Centro de Sáude de Ribeira Brava"
            }
        },
        {
            "type": "Feature",
            "geometry": {
                "type": "Point",
                "coordinates": [
                    -9.18517552,
                    38.7059006
                ]
            },
            "properties": {
                "title": "Centro de Saúde de Alcântara"
            }
        },
        {
            "type": "Feature",
            "geometry": {
                "type": "Point",
                "coordinates": [
                    -9.027671302,
                    38.6580637
                ]
            },
            "properties": {
                "title": "Atendimento Complementar Moita"
            }
        },
        {
            "type": "Feature",
            "geometry": {
                "type": "Point",
                "coordinates": [
                    -7.197268049,
                    41.48669374
                ]
            },
            "properties": {
                "title": "Centro de Saúde Mirandela II - Sardão"
            }
        },
        {
            "type": "Feature",
            "geometry": {
                "type": "Point",
                "coordinates": [
                    -8.097582737,
                    39.79826092
                ]
            },
            "properties": {
                "title": "Centro de Saúde Sertã"
            }
        },
        {
            "type": "Feature",
            "geometry": {
                "type": "Point",
                "coordinates": [
                    -9.32662367,
                    38.78621552
                ]
            },
            "properties": {
                "title": "Centro de Saúde de Rio de Mouro"
            }
        },
        {
            "type": "Feature",
            "geometry": {
                "type": "Point",
                "coordinates": [
                    -8.644869744,
                    37.60130848
                ]
            },
            "properties": {
                "title": "Centro de Saúde de Odemira"
            }
        },
        {
            "type": "Feature",
            "geometry": {
                "type": "Point",
                "coordinates": [
                    -8.657206023,
                    41.19140255
                ]
            },
            "properties": {
                "title": "Centro de Saúde da Senhora da Hora"
            }
        },
        {
            "type": "Feature",
            "geometry": {
                "type": "Point",
                "coordinates": [
                    -8.257413797,
                    40.21155461
                ]
            },
            "properties": {
                "title": "Centro de Saúde Vila Nova de Poiares"
            }
        },
        {
            "type": "Feature",
            "geometry": {
                "type": "Point",
                "coordinates": [
                    -8.987494003,
                    38.95944052
                ]
            },
            "properties": {
                "title": "Centro de Saúde Vila Franca de Xira"
            }
        },
        {
            "type": "Feature",
            "geometry": {
                "type": "Point",
                "coordinates": [
                    -6.9004092,
                    40.72508871
                ]
            },
            "properties": {
                "title": "Centro de Saúde de Almeida"
            }
        },
        {
            "type": "Feature",
            "geometry": {
                "type": "Point",
                "coordinates": [
                    -6.764714047,
                    41.80314161
                ]
            },
            "properties": {
                "title": "Centro de Saúde Bragança - Unidade de Saúde da Sé"
            }
        },
        {
            "type": "Feature",
            "geometry": {
                "type": "Point",
                "coordinates": [
                    -9.17761065,
                    38.79370192
                ]
            },
            "properties": {
                "title": "Centro de Saúde de Odivelas"
            }
        },
        {
            "type": "Feature",
            "geometry": {
                "type": "Point",
                "coordinates": [
                    -9.324674042,
                    38.85818225
                ]
            },
            "properties": {
                "title": "Centro de Saúde de Pêro Pinheiro"
            }
        },
        {
            "type": "Feature",
            "geometry": {
                "type": "Point",
                "coordinates": [
                    -7.729201077,
                    40.74079732
                ]
            },
            "properties": {
                "title": "Centro de Saúde de Sátão"
            }
        },
        {
            "type": "Feature",
            "geometry": {
                "type": "Point",
                "coordinates": [
                    -7.840025099,
                    37.0365499
                ]
            },
            "properties": {
                "title": "Centro de Saúde de Olhão"
            }
        },
        {
            "type": "Feature",
            "geometry": {
                "type": "Point",
                "coordinates": [
                    -9.194463921,
                    38.70549302
                ]
            },
            "properties": {
                "title": "Centro de Saúde da Ajuda"
            }
        },
        {
            "type": "Feature",
            "geometry": {
                "type": "Point",
                "coordinates": [
                    -8.480872916,
                    39.35773328
                ]
            },
            "properties": {
                "title": "Centro de Saúde da Chamusca"
            }
        },
        {
            "type": "Feature",
            "geometry": {
                "type": "Point",
                "coordinates": [
                    -8.834297975,
                    41.874997
                ]
            },
            "properties": {
                "title": "Centro de Saúde de Caminha"
            }
        },
        {
            "type": "Feature",
            "geometry": {
                "type": "Point",
                "coordinates": [
                    -8.580268117,
                    39.25110751
                ]
            },
            "properties": {
                "title": "Centro de Saúde de Alpiarça"
            }
        },
        {
            "type": "Feature",
            "geometry": {
                "type": "Point",
                "coordinates": [
                    -8.668369745,
                    41.17545388
                ]
            },
            "properties": {
                "title": "Centro de Saúde de Aldoar"
            }
        },
        {
            "type": "Feature",
            "geometry": {
                "type": "Point",
                "coordinates": [
                    -7.644828937,
                    41.49870401
                ]
            },
            "properties": {
                "title": "Centro de Saúde de Vila Pouca de Aguiar"
            }
        },
        {
            "type": "Feature",
            "geometry": {
                "type": "Point",
                "coordinates": [
                    -7.489985815,
                    40.89775668
                ]
            },
            "properties": {
                "title": "Centro de Saúde de Sernancelhe"
            }
        },
        {
            "type": "Feature",
            "geometry": {
                "type": "Point",
                "coordinates": [
                    -8.486304415,
                    42.06908715
                ]
            },
            "properties": {
                "title": "Centro de Saúde de Monção"
            }
        },
        {
            "type": "Feature",
            "geometry": {
                "type": "Point",
                "coordinates": [
                    -8.214141373,
                    38.65227051
                ]
            },
            "properties": {
                "title": "Centro de Saúde Montemor-o-Novo"
            }
        },
        {
            "type": "Feature",
            "geometry": {
                "type": "Point",
                "coordinates": [
                    -17.10432326,
                    32.82303926
                ]
            },
            "properties": {
                "title": "Centro de Saúde Seixal"
            }
        },
        {
            "type": "Feature",
            "geometry": {
                "type": "Point",
                "coordinates": [
                    -25.14531572,
                    36.95997948
                ]
            },
            "properties": {
                "title": "Centro de Saúde Vila do Porto"
            }
        },
        {
            "type": "Feature",
            "geometry": {
                "type": "Point",
                "coordinates": [
                    -7.44716042,
                    37.216614
                ]
            },
            "properties": {
                "title": "Centro de Saúde de Castro Marim"
            }
        },
        {
            "type": "Feature",
            "geometry": {
                "type": "Point",
                "coordinates": [
                    -7.651944074,
                    39.51410391
                ]
            },
            "properties": {
                "title": "Centro de Saúde de Nisa"
            }
        },
        {
            "type": "Feature",
            "geometry": {
                "type": "Point",
                "coordinates": [
                    -8.606747629,
                    41.16553684
                ]
            },
            "properties": {
                "title": "Unidade de Saúde do Covelo - Atendimento Complementar ACES Grande Porto VI - Porto Oriental"
            }
        },
        {
            "type": "Feature",
            "geometry": {
                "type": "Point",
                "coordinates": [
                    -7.75954321,
                    40.59179519
                ]
            },
            "properties": {
                "title": "Centro de Saúde de Mangualde"
            }
        },
        {
            "type": "Feature",
            "geometry": {
                "type": "Point",
                "coordinates": [
                    -9.145876144,
                    38.71198701
                ]
            },
            "properties": {
                "title": "Centro de Saúde Luz Soriano"
            }
        },
        {
            "type": "Feature",
            "geometry": {
                "type": "Point",
                "coordinates": [
                    -8.446651747,
                    40.58255856
                ]
            },
            "properties": {
                "title": "Centro de Saúde de Águeda"
            }
        },
        {
            "type": "Feature",
            "geometry": {
                "type": "Point",
                "coordinates": [
                    -25.52660893,
                    37.81922428
                ]
            },
            "properties": {
                "title": "Centro de Saúde da Ribeira Grande"
            }
        },
        {
            "type": "Feature",
            "geometry": {
                "type": "Point",
                "coordinates": [
                    -8.283623517,
                    40.2670721
                ]
            },
            "properties": {
                "title": "Centro de Saúde de Penacova"
            }
        },
        {
            "type": "Feature",
            "geometry": {
                "type": "Point",
                "coordinates": [
                    -17.15918571,
                    32.84699598
                ]
            },
            "properties": {
                "title": "Centro de Saúde da Ribeira da Janela"
            }
        },
        {
            "type": "Feature",
            "geometry": {
                "type": "Point",
                "coordinates": [
                    -8.212028366,
                    40.00201776
                ]
            },
            "properties": {
                "title": "Centro de Saúde de Castanheira de Pêra"
            }
        },
        {
            "type": "Feature",
            "geometry": {
                "type": "Point",
                "coordinates": [
                    -8.173209233,
                    40.72849233
                ]
            },
            "properties": {
                "title": "Centro de Saúde de Oliveira de Frades"
            }
        },
        {
            "type": "Feature",
            "geometry": {
                "type": "Point",
                "coordinates": [
                    -8.413702853,
                    40.19481638
                ]
            },
            "properties": {
                "title": "Centro de Saúde Norton de Matos"
            }
        },
        {
            "type": "Feature",
            "geometry": {
                "type": "Point",
                "coordinates": [
                    -8.7806993,
                    41.53674056
                ]
            },
            "properties": {
                "title": "Centro de Saúde de Esposende"
            }
        },
        {
            "type": "Feature",
            "geometry": {
                "type": "Point",
                "coordinates": [
                    -7.885524029,
                    37.15547092
                ]
            },
            "properties": {
                "title": "Centro de Saúde de São Brás de Alportel"
            }
        },
        {
            "type": "Feature",
            "geometry": {
                "type": "Point",
                "coordinates": [
                    -7.989225672,
                    41.51210308
                ]
            },
            "properties": {
                "title": "Centro de Saúde de Cabeceiras de Basto"
            }
        },
        {
            "type": "Feature",
            "geometry": {
                "type": "Point",
                "coordinates": [
                    -8.699766064,
                    38.020778
                ]
            },
            "properties": {
                "title": "Centro de Saúde de Santiago do Cacém"
            }
        },
        {
            "type": "Feature",
            "geometry": {
                "type": "Point",
                "coordinates": [
                    -7.915173089,
                    40.65928073
                ]
            },
            "properties": {
                "title": "Centro de Saúde Viseu I"
            }
        },
        {
            "type": "Feature",
            "geometry": {
                "type": "Point",
                "coordinates": [
                    -17.1179754,
                    32.69750456
                ]
            },
            "properties": {
                "title": "Centro de Saúde Canhas"
            }
        },
        {
            "type": "Feature",
            "geometry": {
                "type": "Point",
                "coordinates": [
                    -9.100955883,
                    38.78224014
                ]
            },
            "properties": {
                "title": "USF Moscavide - Atendimento Complementar Moscavide"
            }
        },
        {
            "type": "Feature",
            "geometry": {
                "type": "Point",
                "coordinates": [
                    -8.482850588,
                    41.3468029
                ]
            },
            "properties": {
                "title": "Centro de Saúde de Santo Tirso"
            }
        },
        {
            "type": "Feature",
            "geometry": {
                "type": "Point",
                "coordinates": [
                    -8.262793499,
                    41.5753723
                ]
            },
            "properties": {
                "title": "Centro de Saúde da Póvoa de Lanhoso"
            }
        },
        {
            "type": "Feature",
            "geometry": {
                "type": "Point",
                "coordinates": [
                    -8.62427202,
                    41.53367742
                ]
            },
            "properties": {
                "title": "Centro de Saúde de Barcelos"
            }
        },
        {
            "type": "Feature",
            "geometry": {
                "type": "Point",
                "coordinates": [
                    -8.979091975,
                    38.70845234
                ]
            },
            "properties": {
                "title": "Centro de Saúde do Montijo"
            }
        },
        {
            "type": "Feature",
            "geometry": {
                "type": "Point",
                "coordinates": [
                    -9.310142128,
                    39.24284213
                ]
            },
            "properties": {
                "title": "Centro de Saúde da Lourinhã"
            }
        },
        {
            "type": "Feature",
            "geometry": {
                "type": "Point",
                "coordinates": [
                    -16.97895335,
                    32.67211857
                ]
            },
            "properties": {
                "title": "Centro de Saúde de Estreito de Câmara de Lobos"
            }
        },
        {
            "type": "Feature",
            "geometry": {
                "type": "Point",
                "coordinates": [
                    -9.155279427,
                    39.01992045
                ]
            },
            "properties": {
                "title": "Centro de Saúde de Sobral de Monte Agraço"
            }
        },
        {
            "type": "Feature",
            "geometry": {
                "type": "Point",
                "coordinates": [
                    -8.614698624,
                    41.25970382
                ]
            },
            "properties": {
                "title": "Centro de Saúde de Castelo da Maia"
            }
        },
        {
            "type": "Feature",
            "geometry": {
                "type": "Point",
                "coordinates": [
                    -8.524532209,
                    41.13955639
                ]
            },
            "properties": {
                "title": "Centro de Saúde de Gondomar"
            }
        },
        {
            "type": "Feature",
            "geometry": {
                "type": "Point",
                "coordinates": [
                    -7.643820437,
                    39.05248358
                ]
            },
            "properties": {
                "title": "Centro de Saúde de Fronteira"
            }
        },
        {
            "type": "Feature",
            "geometry": {
                "type": "Point",
                "coordinates": [
                    -8.80929187,
                    39.76486783
                ]
            },
            "properties": {
                "title": "Centro de Saúde Leiria - Dr. Arnaldo Sampaio"
            }
        },
        {
            "type": "Feature",
            "geometry": {
                "type": "Point",
                "coordinates": [
                    -8.392680391,
                    40.0271861
                ]
            },
            "properties": {
                "title": "Centro de Saúde de Penela"
            }
        },
        {
            "type": "Feature",
            "geometry": {
                "type": "Point",
                "coordinates": [
                    -7.937196122,
                    37.02741592
                ]
            },
            "properties": {
                "title": "Centro de Saúde de Faro"
            }
        },
        {
            "type": "Feature",
            "geometry": {
                "type": "Point",
                "coordinates": [
                    -6.276458962,
                    41.49533346
                ]
            },
            "properties": {
                "title": "Centro de Saúde de Miranda do Douro"
            }
        },
        {
            "type": "Feature",
            "geometry": {
                "type": "Point",
                "coordinates": [
                    -16.90987489,
                    32.82722901
                ]
            },
            "properties": {
                "title": "Centro de Saúde de São Jorge"
            }
        },
        {
            "type": "Feature",
            "geometry": {
                "type": "Point",
                "coordinates": [
                    -7.857035856,
                    40.3559475
                ]
            },
            "properties": {
                "title": "Centro de Saúde de Oliveira do Hospital"
            }
        },
        {
            "type": "Feature",
            "geometry": {
                "type": "Point",
                "coordinates": [
                    -25.14676083,
                    37.83466065
                ]
            },
            "properties": {
                "title": "Centro de Saúde do Nordeste"
            }
        },
        {
            "type": "Feature",
            "geometry": {
                "type": "Point",
                "coordinates": [
                    -8.43517647,
                    40.21547383
                ]
            },
            "properties": {
                "title": "Centro Saúde Fernão de Magalhães"
            }
        },
        {
            "type": "Feature",
            "geometry": {
                "type": "Point",
                "coordinates": [
                    -7.274186052,
                    40.53325613
                ]
            },
            "properties": {
                "title": "Centro de Saúde da Guarda"
            }
        },
        {
            "type": "Feature",
            "geometry": {
                "type": "Point",
                "coordinates": [
                    -25.43705064,
                    37.71562534
                ]
            },
            "properties": {
                "title": "Centro de Saúde de Vila Franca do Campo"
            }
        },
        {
            "type": "Feature",
            "geometry": {
                "type": "Point",
                "coordinates": [
                    -27.21301876,
                    38.661167
                ]
            },
            "properties": {
                "title": "Centro Saúde de Angra do Heroísmo"
            }
        },
        {
            "type": "Feature",
            "geometry": {
                "type": "Point",
                "coordinates": [
                    -28.63524659,
                    38.53102608
                ]
            },
            "properties": {
                "title": "Centro de Saúde da Horta"
            }
        },
        {
            "type": "Feature",
            "geometry": {
                "type": "Point",
                "coordinates": [
                    -16.77187043,
                    32.72474317
                ]
            },
            "properties": {
                "title": "Centro de Saúde Machico"
            }
        },
        {
            "type": "Feature",
            "geometry": {
                "type": "Point",
                "coordinates": [
                    -7.800979041,
                    38.210295
                ]
            },
            "properties": {
                "title": "Centro de Saúde da Vidigueira"
            }
        },